% program   : RTKPOST ver.2.4.2
% inp file  : C:\Users\shubh\Downloads\1_lightUrban_tsimShaTsuiEast_20210517\20210517.light-urban.tste.novatel.flexpak6.obs
% inp file  : C:\Users\shubh\Downloads\brdc1370.21n.gz
% obs start : 2021/05/17 02:33:13.0 GPST (week2158  95593.0s)
% obs end   : 2021/05/17 02:46:19.0 GPST (week2158  96379.0s)
% pos mode  : single
% elev mask : 15.0 deg
% ionos opt : broadcast
% tropo opt : saastamoinen
% ephemeris : broadcast
% navi sys  : gps glonass galileo qzss sbas
%
% (lat/lon/height=WGS84/ellipsoidal,Q=1:fix,2:float,3:sbas,4:dgps,5:single,6:ppp,ns=# of satellites)
%  GPST                  latitude(deg) longitude(deg)  height(m)   Q  ns   sdn(m)   sde(m)   sdu(m)  sdne(m)  sdeu(m)  sdun(m) age(s)  ratio
2021/05/17 02:36:30.000   22.297179248  114.176029849     1.9440   5   4   4.8412   7.8333  26.9946   5.0205  -9.0484  -8.7654   0.00    0.0
2021/05/17 02:36:31.000   22.297181110  114.175975466    -5.0340   5   4   4.8385   7.8294  26.9859   5.0163  -9.0360  -8.7570   0.00    0.0
2021/05/17 02:36:32.000   22.297173190  114.175933837   -12.4173   5   4   4.8357   7.8256  26.9772   5.0120  -9.0235  -8.7486   0.00    0.0
2021/05/17 02:36:33.000   22.297166216  114.175842711    -3.3089   5   4   4.8330   7.8217  26.9685   5.0078  -9.0110  -8.7402   0.00    0.0
2021/05/17 02:36:36.000   22.297193110  114.175698095    -8.7708   5   4   4.8248   7.8102  26.9426   4.9952  -8.9737  -8.7152   0.00    0.0
2021/05/17 02:36:37.000   22.297209106  114.175649132   -10.0187   5   4   4.8221   7.8064  26.9340   4.9910  -8.9612  -8.7068   0.00    0.0
2021/05/17 02:37:11.000   22.299623186  114.175833292     5.9453   5   4   3.4922  12.8650  12.0763  -3.5364   7.1741   3.6039   0.00    0.0
2021/05/17 02:37:21.000   22.300341792  114.176106788    -2.2539   5   4   4.7090   7.6479  26.5669   4.8137  -8.4195  -8.3466   0.00    0.0
2021/05/17 02:37:22.000   22.300361466  114.176086747    -3.0680   5   4   4.7065   7.6445  26.5589   4.8098  -8.4072  -8.3385   0.00    0.0
2021/05/17 02:37:23.000   22.300374298  114.176118274    -7.6233   5   4   4.7041   7.6411  26.5508   4.8060  -8.3950  -8.3304   0.00    0.0
2021/05/17 02:37:24.000   22.300376594  114.176102455    -5.3096   5   4   4.7016   7.6376  26.5428   4.8021  -8.3828  -8.3222   0.00    0.0
2021/05/17 02:37:25.000   22.300375556  114.176108394    -6.3549   5   4   4.6991   7.6343  26.5348   4.7982  -8.3706  -8.3141   0.00    0.0
2021/05/17 02:37:26.000   22.300377953  114.176115985    -9.3581   5   4   4.6967   7.6309  26.5268   4.7943  -8.3583  -8.3060   0.00    0.0
2021/05/17 02:37:27.000   22.300376782  114.176114746    -9.8076   5   4   4.6942   7.6275  26.5187   4.7905  -8.3461  -8.2979   0.00    0.0
2021/05/17 02:37:28.000   22.300374880  114.176100673    -8.1937   5   4   4.6918   7.6241  26.5108   4.7866  -8.3339  -8.2897   0.00    0.0
2021/05/17 02:37:29.000   22.300373477  114.176099310    -7.8176   5   4   4.6893   7.6207  26.5028   4.7828  -8.3217  -8.2816   0.00    0.0
2021/05/17 02:37:30.000   22.300374632  114.176097235    -8.1573   5   4   4.6869   7.6174  26.4948   4.7789  -8.3094  -8.2735   0.00    0.0
2021/05/17 02:37:31.000   22.300374001  114.176090663    -8.0698   5   4   4.6845   7.6140  26.4868   4.7751  -8.2972  -8.2654   0.00    0.0
2021/05/17 02:37:32.000   22.300373859  114.176087195    -8.5039   5   4   4.6820   7.6107  26.4789   4.7713  -8.2850  -8.2573   0.00    0.0
2021/05/17 02:37:33.000   22.300373051  114.176084003    -8.7715   5   4   4.6796   7.6074  26.4710   4.7674  -8.2728  -8.2492   0.00    0.0
2021/05/17 02:37:34.000   22.300373692  114.176082965    -9.4593   5   4   4.6772   7.6040  26.4631   4.7636  -8.2606  -8.2411   0.00    0.0
2021/05/17 02:37:35.000   22.300375552  114.176085374   -10.3012   5   4   4.6748   7.6007  26.4551   4.7598  -8.2484  -8.2330   0.00    0.0
2021/05/17 02:37:36.000   22.300375501  114.176085552   -10.3155   5   4   4.6724   7.5974  26.4473   4.7560  -8.2362  -8.2249   0.00    0.0
2021/05/17 02:37:37.000   22.300375708  114.176087571   -11.1345   5   4   4.6700   7.5941  26.4394   4.7522  -8.2240  -8.2169   0.00    0.0
2021/05/17 02:37:38.000   22.300376779  114.176090057   -11.8625   5   4   4.6676   7.5908  26.4315   4.7484  -8.2118  -8.2088   0.00    0.0
2021/05/17 02:37:39.000   22.300378685  114.176092645   -12.1407   5   4   4.6652   7.5875  26.4236   4.7446  -8.1996  -8.2007   0.00    0.0
2021/05/17 02:37:40.000   22.300385912  114.176093581   -10.6362   5   4   4.6628   7.5842  26.4158   4.7408  -8.1874  -8.1927   0.00    0.0
2021/05/17 02:38:14.000   22.302184906  114.176732091    14.1361   5   4   4.5850   7.4772  26.1559   4.6163  -7.7741  -7.9221   0.00    0.0
2021/05/17 02:38:15.000   22.302175642  114.176759160    29.2027   5   4   4.5827   7.4742  26.1484   4.6127  -7.7619  -7.9141   0.00    0.0
2021/05/17 02:38:16.000   22.302186847  114.176735586    10.6465   5   4   4.5805   7.4712  26.1410   4.6092  -7.7498  -7.9062   0.00    0.0
2021/05/17 02:38:17.000   22.302185328  114.176736428    11.7310   5   4   4.5783   7.4682  26.1336   4.6056  -7.7376  -7.8982   0.00    0.0
2021/05/17 02:38:18.000   22.302179981  114.176746506    17.9572   5   4   4.5761   7.4652  26.1262   4.6020  -7.7255  -7.8903   0.00    0.0
2021/05/17 02:38:19.000   22.302182040  114.176736154    10.0237   5   4   4.5739   7.4622  26.1188   4.5985  -7.7133  -7.8824   0.00    0.0
2021/05/17 02:38:20.000   22.302181788  114.176740530    13.2779   5   4   4.5717   7.4592  26.1114   4.5950  -7.7012  -7.8745   0.00    0.0
2021/05/17 02:38:21.000   22.302186607  114.176742951    10.7230   5   4   4.5695   7.4562  26.1040   4.5914  -7.6891  -7.8666   0.00    0.0
2021/05/17 02:38:22.000   22.302189427  114.176744296    11.3790   5   4   4.5673   7.4532  26.0966   4.5879  -7.6769  -7.8586   0.00    0.0
2021/05/17 02:38:23.000   22.302190714  114.176744187    11.3297   5   4   4.5652   7.4503  26.0893   4.5844  -7.6648  -7.8507   0.00    0.0
2021/05/17 02:38:24.000   22.302193060  114.176742508     9.8860   5   4   4.5630   7.4473  26.0819   4.5809  -7.6526  -7.8428   0.00    0.0
2021/05/17 02:38:25.000   22.302194397  114.176745123    11.5452   5   4   4.5608   7.4444  26.0746   4.5774  -7.6405  -7.8349   0.00    0.0
2021/05/17 02:38:26.000   22.302199313  114.176734456     9.2487   5   4   4.5586   7.4414  26.0673   4.5739  -7.6283  -7.8270   0.00    0.0
2021/05/17 02:38:27.000   22.302205988  114.176728052     3.4286   5   4   4.5565   7.4385  26.0600   4.5704  -7.6162  -7.8191   0.00    0.0
2021/05/17 02:38:28.000   22.302211732  114.176724774     3.1219   5   4   4.5543   7.4356  26.0527   4.5669  -7.6040  -7.8112   0.00    0.0
2021/05/17 02:38:29.000   22.302222445  114.176723794     0.6238   5   4   4.5522   7.4326  26.0454   4.5634  -7.5919  -7.8033   0.00    0.0
2021/05/17 02:38:37.000   22.302565896  114.176865943    -7.4992   5   4   4.5352   7.4095  25.9875   4.5358  -7.4949  -7.7406   0.00    0.0
2021/05/17 02:38:38.000   22.302622420  114.176891236    -6.5017   5   4   4.5331   7.4067  25.9803   4.5324  -7.4827  -7.7328   0.00    0.0
2021/05/17 02:38:39.000   22.302704596  114.176930184    -7.4098   5   4   4.5310   7.4038  25.9731   4.5290  -7.4706  -7.7250   0.00    0.0
2021/05/17 02:38:40.000   22.302773278  114.176967436    -9.3403   5   4   4.5289   7.4010  25.9660   4.5256  -7.4585  -7.7172   0.00    0.0
2021/05/17 02:38:41.000   22.302837519  114.177013499     4.2624   5   6   2.4459   4.5772   7.0129  -1.0830   1.5891  -1.8899   0.00    0.0
2021/05/17 02:38:42.000   22.302891457  114.177041337     8.3584   5   6   2.4461   4.5775   7.0116  -1.0835   1.5901  -1.8895   0.00    0.0
2021/05/17 02:38:43.000   22.302947060  114.177089855     3.6244   5   5   4.5029   7.3672  14.1445   4.5438  -8.2693  -7.0719   0.00    0.0
2021/05/17 02:38:44.000   22.302984441  114.177137477     4.6180   5   5   4.5010   7.3641  14.1352   4.5405  -8.2626  -7.0670   0.00    0.0
2021/05/17 02:38:45.000   22.303002569  114.177205265     2.9347   5   6   4.2676   5.7402  13.9973   3.7443  -7.7070  -6.8677   0.00    0.0
2021/05/17 02:38:46.000   22.302997831  114.177274287     3.2282   5   7   2.4377   3.5445   6.6560  -1.3411  -1.9494  -2.0081   0.00    0.0
2021/05/17 02:38:47.000   22.302975032  114.177342239     0.8609   5   6   2.6304   3.5448   7.7789  -1.3344  -1.9286  -0.2305   0.00    0.0
2021/05/17 02:38:48.000   22.302942155  114.177417820     4.5414   5   6   2.6307   3.5451   7.7773  -1.3351  -1.9284  -0.2268   0.00    0.0
2021/05/17 02:38:49.000   22.302907158  114.177506632     2.1255   5   5   4.4824   6.6437  19.9497   4.3135 -10.3413  -8.1684   0.00    0.0
2021/05/17 02:38:50.000   22.302865942  114.177600963     3.6650   5   5   4.4803   6.6406  19.9349   4.3098 -10.3337  -8.1616   0.00    0.0
2021/05/17 02:38:53.000   22.302735235  114.177877843    -8.5309   5   4   4.5019   7.3648  25.8737   4.4817  -7.3014  -7.6152   0.00    0.0
2021/05/17 02:38:55.000   22.302670519  114.178092417     1.0204   5   4   4.8524   6.8697  19.9757   3.8716 -10.4826  -7.8762   0.00    0.0
2021/05/17 02:39:11.000   22.302336066  114.179514024    -9.9972   5   4   4.4657   7.3165  25.7489   4.4226  -7.0841  -7.4744   0.00    0.0
2021/05/17 02:39:17.000   22.301956957  114.179592726    -0.3782   5   4   4.4539   7.3008  25.7080   4.4032  -7.0111  -7.4275   0.00    0.0
2021/05/17 02:39:18.000   22.301923725  114.179598793     3.8895   5   4   4.4519   7.2982  25.7012   4.4000  -6.9989  -7.4197   0.00    0.0
2021/05/17 02:39:19.000   22.301886626  114.179596368    -1.5904   5   5   3.1616   6.0943  12.0651   2.6023   6.4940   4.0132   0.00    0.0
2021/05/17 02:39:20.000   22.301870075  114.179608930     3.4790   5   4   9.4340   9.5892  24.1537   8.5191  14.0389  14.2161   0.00    0.0
2021/05/17 02:39:21.000   22.301857266  114.179603697     3.0303   5   4   9.4369   9.5897  24.1535   8.5206  14.0394  14.2185   0.00    0.0
2021/05/17 02:39:22.000   22.301847125  114.179611951     1.9942   5   4   9.4397   9.5902  24.1534   8.5221  14.0399  14.2208   0.00    0.0
2021/05/17 02:39:23.000   22.301846591  114.179620715     0.3679   5   4   9.4425   9.5907  24.1532   8.5236  14.0404  14.2231   0.00    0.0
2021/05/17 02:39:24.000   22.301842351  114.179620451     2.1535   5   4   9.4454   9.5913  24.1529   8.5251  14.0410  14.2254   0.00    0.0
2021/05/17 02:39:25.000   22.301845027  114.179624102     3.1278   5   4   9.4482   9.5917  24.1527   8.5266  14.0415  14.2278   0.00    0.0
2021/05/17 02:39:26.000   22.301852472  114.179629122     5.9217   5   4   9.4510   9.5922  24.1525   8.5280  14.0420  14.2301   0.00    0.0
2021/05/17 02:39:27.000   22.301844948  114.179622444     2.9956   5   4   9.4539   9.5927  24.1523   8.5295  14.0425  14.2324   0.00    0.0
2021/05/17 02:39:28.000   22.301838896  114.179615120     1.5237   5   4   9.4567   9.5932  24.1521   8.5310  14.0430  14.2347   0.00    0.0
2021/05/17 02:39:29.000   22.301834558  114.179607773     0.0896   5   4   9.4595   9.5937  24.1518   8.5325  14.0435  14.2370   0.00    0.0
2021/05/17 02:39:30.000   22.301829628  114.179610408     2.5307   5   4   9.4623   9.5942  24.1516   8.5339  14.0439  14.2393   0.00    0.0
2021/05/17 02:39:31.000   22.301804493  114.179608399     1.7385   5   4   9.4652   9.5947  24.1514   8.5354  14.0444  14.2417   0.00    0.0
2021/05/17 02:39:32.000   22.301774335  114.179606111     2.1385   5   4   9.4680   9.5952  24.1511   8.5369  14.0449  14.2440   0.00    0.0
2021/05/17 02:39:33.000   22.301731983  114.179591604     2.0814   5   4   9.4709   9.5957  24.1509   8.5383  14.0454  14.2463   0.00    0.0
2021/05/17 02:39:34.000   22.301683369  114.179561582     1.9729   5   4   9.4737   9.5961  24.1506   8.5398  14.0459  14.2486   0.00    0.0
2021/05/17 02:43:04.000   22.297155732  114.176138790     4.7093   5   4   4.6653   6.1584  16.7359   2.9771  -8.6835  -6.6775   0.00    0.0
2021/05/17 02:43:05.000   22.297162528  114.176091740     4.1291   5   4   4.6649   6.1561  16.7252   2.9737  -8.6775  -6.6736   0.00    0.0
2021/05/17 02:43:08.000   22.297143856  114.175877436     4.2877   5   4   4.1120   6.8488  24.3892   3.7966  -3.9559  -5.6531   0.00    0.0
2021/05/17 02:43:09.000   22.297172346  114.175840190    -1.5399   5   4   4.1110   6.8474  24.3845   3.7945  -3.9403  -5.6454   0.00    0.0
2021/05/17 02:43:10.000   22.297168186  114.175769121     2.2064   5   4   4.1099   6.8460  24.3797   3.7924  -3.9246  -5.6376   0.00    0.0
2021/05/17 02:43:11.000   22.297193639  114.175731248    -3.0723   5   4   4.1089   6.8446  24.3750   3.7904  -3.9089  -5.6299   0.00    0.0
2021/05/17 02:43:12.000   22.297193541  114.175666752    -2.5670   5   4   4.1078   6.8432  24.3703   3.7883  -3.8932  -5.6221   0.00    0.0
2021/05/17 02:43:13.000   22.297198313  114.175602429     1.0679   5   4   4.1068   6.8418  24.3656   3.7862  -3.8774  -5.6144   0.00    0.0
2021/05/17 02:43:14.000   22.297219040  114.175548189     2.0275   5   4   4.1058   6.8405  24.3609   3.7842  -3.8615  -5.6066   0.00    0.0
2021/05/17 02:44:02.000   22.300310223  114.176086699    -8.5144   5   4   4.0605   6.7792  24.1441   3.6901  -3.0402  -5.2333   0.00    0.0
2021/05/17 02:44:03.000   22.300310197  114.176107085   -10.4828   5   4   4.0596   6.7781  24.1398   3.6883  -3.0213  -5.2254   0.00    0.0
2021/05/17 02:44:04.000   22.300308503  114.176086192    -8.9061   5   4   4.0587   6.7769  24.1354   3.6864  -3.0023  -5.2174   0.00    0.0
2021/05/17 02:44:05.000   22.300307119  114.176088981   -10.3457   5   4   4.0579   6.7757  24.1311   3.6846  -2.9832  -5.2095   0.00    0.0
2021/05/17 02:44:06.000   22.300304537  114.176086122   -11.6447   5   4   4.0570   6.7745  24.1268   3.6827  -2.9641  -5.2016   0.00    0.0
2021/05/17 02:44:07.000   22.300303635  114.176090587   -13.7307   5   4   4.0561   6.7734  24.1225   3.6809  -2.9448  -5.1936   0.00    0.0
2021/05/17 02:44:08.000   22.300302945  114.176086768   -14.4913   5   4   4.0553   6.7722  24.1182   3.6790  -2.9254  -5.1856   0.00    0.0
2021/05/17 02:44:09.000   22.300299911  114.176086324   -15.2206   5   4   4.0544   6.7710  24.1139   3.6772  -2.9060  -5.1777   0.00    0.0
2021/05/17 02:44:10.000   22.300299537  114.176089293   -16.0581   5   4   4.0536   6.7699  24.1096   3.6754  -2.8864  -5.1697   0.00    0.0
2021/05/17 02:44:11.000   22.300301179  114.176087367   -16.2341   5   4   4.0527   6.7687  24.1053   3.6735  -2.8667  -5.1617   0.00    0.0
2021/05/17 02:44:12.000   22.300310865  114.176085536   -15.9183   5   4   4.0519   6.7676  24.1010   3.6717  -2.8469  -5.1538   0.00    0.0
2021/05/17 02:45:29.000   22.302858433  114.177622234     8.3158   5   4   4.1362   6.0747  16.1530   2.5864  -7.2391  -6.6046   0.00    0.0
2021/05/17 02:45:35.000   22.302719007  114.177816143    -0.7190   5   4   3.9927   6.6846  23.7698   3.5338   0.8946  -4.4734   0.00    0.0
2021/05/17 02:45:36.000   22.302709457  114.177894255     1.5534   5   4   3.9921   6.6837  23.7661   3.5323   0.9495  -4.4648   0.00    0.0
2021/05/17 02:45:40.000   22.302602630  114.178171796     0.6643   5   4   4.8026   6.4413  11.9231   3.4990  -6.1097  -6.4526   0.00    0.0
2021/05/17 02:45:41.000   22.302581885  114.178256826     7.2330   5   4   4.6162   5.8555  15.2215   2.4541  -7.8172  -6.1253   0.00    0.0
2021/05/17 02:45:42.000   22.302582502  114.178373905    -0.5289   5   4   4.6160   5.8539  15.2129   2.4507  -7.8122  -6.1221   0.00    0.0
