% program   : RTKPOST ver.2.4.2
% inp file  : C:\Users\shubh\Downloads\1_lightUrban_tsimShaTsuiEast_20210517\20210517.light-urban.tste.huawei.p40pro.obs
% inp file  : C:\Users\shubh\Downloads\hksc137c.21o
% inp file  : C:\Users\shubh\Downloads\hksc137c.21n
% inp file  : C:\Users\shubh\Downloads\hksc137c.21f
% obs start : 2021/05/17 02:33:13.0 GPST (week2158  95593.0s)
% obs end   : 2021/05/17 02:46:19.0 GPST (week2158  96379.0s)
% pos mode  : kinematic
% freqs     : L1+L2
% solution  : forward
% elev mask : 0.0 deg
% dynamics  : off
% tidecorr  : off
% ionos opt : broadcast
% tropo opt : saastamoinen
% ephemeris : broadcast
% navi sys  : gps glonass galileo qzss sbas
% amb res   : off
% amb glo   : on
% val thres : 3.0
% antenna1  :                       ( 0.0000  0.0000  0.0000)
% antenna2  :                       ( 0.0000  0.0000  0.0000)
% ref pos   : 90.000000000    0.000000000 -6335367.6285
%
% (lat/lon/height=WGS84/ellipsoidal,Q=1:fix,2:float,3:sbas,4:dgps,5:single,6:ppp,ns=# of satellites)
%  GPST                  latitude(deg) longitude(deg)  height(m)   Q  ns   sdn(m)   sde(m)   sdu(m)  sdne(m)  sdeu(m)  sdun(m) age(s)  ratio
2021/05/17 02:33:20.999   22.301203433  114.178792507   -36.7218   5   4  30.0000  30.0000  30.0000   0.0000   0.0000  -0.0000  -0.00    0.0
2021/05/17 02:33:21.999   22.301199702  114.178857255   -35.5023   5   4  30.0000  30.0000  30.0000   0.0000   0.0000  -0.0000  -0.00    0.0
2021/05/17 02:33:22.999   22.301210490  114.178907342   -32.5282   5   4  30.0000  30.0000  30.0000  -0.0000  -0.0000   0.0000  -0.00    0.0
2021/05/17 02:33:24.999   22.301140365  114.179072049   -13.2314   5   4  30.0000  30.0000  30.0000   0.0000  -0.0000  -0.0000  -0.00    0.0
2021/05/17 02:33:30.999   22.300995876  114.179370801    30.8019   5   4  30.0000  30.0000  30.0000  -0.0000   0.0000  -0.0000  -0.00    0.0
2021/05/17 02:33:32.999   22.300870144  114.179447297    33.4056   5   4  30.0000  30.0000  30.0000  -0.0000   0.0000  -0.0000  -0.00    0.0
2021/05/17 02:33:33.999   22.300782892  114.179484413    41.2811   5   4  30.0000  30.0000  30.0000  -0.0000   0.0000  -0.0000  -0.00    0.0
2021/05/17 02:33:34.999   22.300686003  114.179632650    47.8732   5   4  30.0000  30.0000  30.0000   0.0000   0.0000   0.0000  -0.00    0.0
2021/05/17 02:33:35.999   22.300614196  114.179658674    58.6598   5   4  30.0000  30.0000  30.0000   0.0000   0.0000  -0.0000  -0.00    0.0
2021/05/17 02:33:38.999   22.300337483  114.179086314   166.2515   5   4  30.0000  30.0000  30.0000   0.0000  -0.0000  -0.0000  -0.00    0.0
2021/05/17 02:33:40.999   22.300254189  114.179355041   119.8908   5   4  30.0000  30.0000  30.0000  -0.0000   0.0000  -0.0000  -0.00    0.0
2021/05/17 02:33:43.999   22.300096074  114.179574091   242.8833   5   4  30.0000  30.0000  30.0000  -0.0000  -0.0000   0.0000  -0.00    0.0
2021/05/17 02:33:48.999   22.299910194  114.179782082    71.3852   5   4  30.0000  30.0000  30.0000   0.0000   0.0000   0.0000  -0.00    0.0
2021/05/17 02:33:49.999   22.299944067  114.179798737    46.0522   5   4  30.0000  30.0000  30.0000  -0.0000   0.0000   0.0000  -0.00    0.0
2021/05/17 02:33:50.999   22.299931703  114.179796903    46.6203   5   4  30.0000  30.0000  30.0000   0.0000   0.0000   0.0000  -0.00    0.0
2021/05/17 02:33:54.999   22.299932284  114.179810178    36.7614   5   4  30.0000  30.0000  30.0000  -0.0000   0.0000  -0.0000  -0.00    0.0
2021/05/17 02:33:58.999   22.299764120  114.178992804   186.5669   5   4  30.0000  30.0000  30.0000   0.0000  -0.0000   0.0000  -0.00    0.0
2021/05/17 02:34:00.999   22.299888945  114.179826168    60.2773   5   4  30.0000  30.0000  30.0000   0.0000  -0.0000  -0.0000  -0.00    0.0
2021/05/17 02:34:11.999   22.300184422  114.180183120     4.4105   5   6  30.0000  30.0000  30.0000   0.0000  -0.0000   0.0000  -0.00    0.0
2021/05/17 02:34:16.999   22.299884938  114.179833564    96.0632   5   5  30.0000  30.0000  30.0000  -0.0000   0.0000  -0.0000  -0.00    0.0
2021/05/17 02:34:20.999   22.299845203  114.179486241    70.2242   5   4  30.0000  30.0000  30.0000   0.0000  -0.0000  -0.0000  -0.00    0.0
2021/05/17 02:34:22.999   22.299916996  114.179525937    58.8820   5   4  30.0000  30.0000  30.0000  -0.0000  -0.0000  -0.0000  -0.00    0.0
2021/05/17 02:34:32.999   22.299944559  114.179516565    15.7142   5   4  30.0000  30.0000  30.0000  -0.0000   0.0000   0.0000  -0.00    0.0
2021/05/17 02:34:33.999   22.299981547  114.179484886   -38.4603   5   4  30.0000  30.0000  30.0000  -0.0000   0.0000  -0.0000  -0.00    0.0
2021/05/17 02:34:35.999   22.299980873  114.179790699   -10.3529   5   4  30.0000  30.0000  30.0000   0.0000  -0.0000   0.0000  -0.00    0.0
2021/05/17 02:34:36.999   22.300838722  114.182311822   122.1161   5   4  30.0000  30.0000  30.0000   0.0000   0.0000   0.0000  -0.00    0.0
2021/05/17 02:34:45.999   22.299691141  114.181410676   582.0977   5   4  30.0000  30.0000  30.0000  -0.0000   0.0000   0.0000  -0.00    0.0
2021/05/17 02:34:46.999   22.298780171  114.179834892   843.1351   5   4  30.0000  30.0000  30.0000   0.0000  -0.0000  -0.0000  -0.00    0.0
2021/05/17 02:34:47.999   22.299447473  114.179138421    48.9515   5   4  30.0000  30.0000  30.0000  -0.0000   0.0000   0.0000  -0.00    0.0
2021/05/17 02:34:55.999   22.298844876  114.178733508  -132.3637   5   4  30.0000  30.0000  30.0000   0.0000   0.0000   0.0000  -0.00    0.0
2021/05/17 02:34:56.999   22.298981282  114.178870313   -77.8735   5   5  30.0000  30.0000  30.0000  -0.0000  -0.0000   0.0000  -0.00    0.0
2021/05/17 02:34:57.999   22.298721775  114.178534129  -149.7315   5   4  30.0000  30.0000  30.0000   0.0000   0.0000  -0.0000  -0.00    0.0
2021/05/17 02:34:58.999   22.298636434  114.178380728  -182.6320   5   4  30.0000  30.0000  30.0000  -0.0000  -0.0000   0.0000  -0.00    0.0
2021/05/17 02:35:06.999   22.298326260  114.177898105    84.9672   5   4  30.0000  30.0000  30.0000   0.0000   0.0000   0.0000  -0.00    0.0
2021/05/17 02:35:09.999   22.298233657  114.177695119    91.9502   5   4  30.0000  30.0000  30.0000   0.0000   0.0000  -0.0000  -0.00    0.0
2021/05/17 02:35:17.999   22.297876673  114.177251676    74.1895   5   4  30.0000  30.0000  30.0000   0.0000  -0.0000  -0.0000  -0.00    0.0
2021/05/17 02:35:33.999   22.297245613  114.176124013    39.0574   5   4  30.0000  30.0000  30.0000  -0.0000  -0.0000  -0.0000  -0.00    0.0
2021/05/17 02:35:34.999   22.297234131  114.176100352    60.8355   5   4  30.0000  30.0000  30.0000  -0.0000   0.0000   0.0000  -0.00    0.0
2021/05/17 02:35:36.999   22.297072208  114.175866774   187.8019   5   4  30.0000  30.0000  30.0000   0.0000   0.0000  -0.0000  -0.00    0.0
2021/05/17 02:36:09.999   22.296713512  114.175357677   355.1478   5   4  30.0000  30.0000  30.0000   0.0000  -0.0000   0.0000  -0.00    0.0
2021/05/17 02:36:12.999   22.296720018  114.175338613   415.3141   5   4  30.0000  30.0000  30.0000  -0.0000   0.0000  -0.0000  -0.00    0.0
2021/05/17 02:36:15.999   22.296574142  114.175149738   495.8670   5   4  30.0000  30.0000  30.0000   0.0000   0.0000  -0.0000  -0.00    0.0
2021/05/17 02:36:17.999   22.296567254  114.175138782   517.5695   5   4  30.0000  30.0000  30.0000  -0.0000   0.0000   0.0000  -0.00    0.0
2021/05/17 02:37:25.999   22.300303810  114.175990060   -27.5491   5   4  30.0000  30.0000  30.0000  -0.0000   0.0000  -0.0000  -0.00    0.0
2021/05/17 02:37:29.999   22.300272483  114.175941476   -45.5980   5   4  30.0000  30.0000  30.0000  -0.0000  -0.0000   0.0000  -0.00    0.0
2021/05/17 02:37:32.999   22.300402144  114.175976791   -29.5665   5   4  30.0000  30.0000  30.0000  -0.0000   0.0000  -0.0000  -0.00    0.0
2021/05/17 02:37:35.999   22.300450186  114.175908255   -38.0921   5   4  30.0000  30.0000  30.0000   0.0000   0.0000  -0.0000  -0.00    0.0
2021/05/17 02:37:38.999   22.300499630  114.175959409   -19.1399   5   4  30.0000  30.0000  30.0000  -0.0000   0.0000  -0.0000  -0.00    0.0
2021/05/17 02:37:39.999   22.300506457  114.176025961    -6.8890   5   4  30.0000  30.0000  30.0000   0.0000  -0.0000   0.0000  -0.00    0.0
2021/05/17 02:37:40.999   22.300502064  114.176030905    -9.7954   5   4  30.0000  30.0000  30.0000  -0.0000  -0.0000   0.0000  -0.00    0.0
2021/05/17 02:37:43.999   22.300599793  114.176311705    21.8660   5   4  30.0000  30.0000  30.0000   0.0000   0.0000  -0.0000  -0.00    0.0
2021/05/17 02:37:47.999   22.300854921  114.176272367    29.6241   5   4  30.0000  30.0000  30.0000   0.0000  -0.0000   0.0000  -0.00    0.0
2021/05/17 02:37:49.999   22.301005944  114.176220608     8.5115   5   4  30.0000  30.0000  30.0000   0.0000  -0.0000  -0.0000  -0.00    0.0
2021/05/17 02:38:00.999   22.301927854  114.176889768    45.2591   5   4  30.0000  30.0000  30.0000  -0.0000  -0.0000  -0.0000  -0.00    0.0
2021/05/17 02:38:07.999   22.302105432  114.176597319   -30.1163   5   4  30.0000  30.0000  30.0000   0.0000  -0.0000   0.0000  -0.00    0.0
2021/05/17 02:38:09.999   22.302174528  114.176562130   -42.4207   5   4  30.0000  30.0000  30.0000  -0.0000  -0.0000   0.0000  -0.00    0.0
2021/05/17 02:38:12.999   22.302103676  114.176473360   -45.2636   5   4  30.0000  30.0000  30.0000  -0.0000  -0.0000   0.0000  -0.00    0.0
2021/05/17 02:38:17.999   22.302287621  114.176526140   -47.8854   5   4  30.0000  30.0000  30.0000   0.0000  -0.0000   0.0000  -0.00    0.0
2021/05/17 02:38:19.999   22.302435147  114.177275549   104.0642   5   4  30.0000  30.0000  30.0000   0.0000  -0.0000  -0.0000  -0.00    0.0
2021/05/17 02:38:22.999   22.302928680  114.177245475   132.8761   5   4  30.0000  30.0000  30.0000  -0.0000  -0.0000  -0.0000  -0.00    0.0
2021/05/17 02:38:26.999   22.302019958  114.176293391   132.6798   5   4  30.0000  30.0000  30.0000  -0.0000   0.0000  -0.0000  -0.00    0.0
2021/05/17 02:38:28.999   22.302314899  114.176745816    15.9086   5   4  30.0000  30.0000  30.0000   0.0000  -0.0000  -0.0000  -0.00    0.0
2021/05/17 02:38:30.999   22.302362283  114.176809507    30.5365   5   4  30.0000  30.0000  30.0000  -0.0000  -0.0000   0.0000  -0.00    0.0
2021/05/17 02:38:34.999   22.302481543  114.176838436    12.2529   5   4  30.0000  30.0000  30.0000   0.0000  -0.0000   0.0000  -0.00    0.0
2021/05/17 02:38:36.999   22.302617500  114.176750725   -20.2214   5   4  30.0000  30.0000  30.0000   0.0000   0.0000   0.0000  -0.00    0.0
2021/05/17 02:38:37.999   22.302651391  114.176793962   -17.1583   5   5  30.0000  30.0000  30.0000   0.0000   0.0000  -0.0000  -0.00    0.0
2021/05/17 02:38:38.999   22.302716809  114.176817208   -21.3961   5   5  30.0000  30.0000  30.0000  -0.0000  -0.0000   0.0000  -0.00    0.0
2021/05/17 02:38:39.999   22.302768594  114.176869496   -20.6966   5   5  30.0000  30.0000  30.0000   0.0000  -0.0000  -0.0000  -0.00    0.0
2021/05/17 02:38:40.999   22.302833354  114.177042931     5.9501   5   4  30.0000  30.0000  30.0000  -0.0000   0.0000   0.0000  -0.00    0.0
2021/05/17 02:38:41.999   22.302906493  114.176969962   -15.9925   5   5  30.0000  30.0000  30.0000   0.0000  -0.0000  -0.0000  -0.00    0.0
2021/05/17 02:38:43.999   22.303022065  114.177122728    -6.3393   5   5  30.0000  30.0000  30.0000  -0.0000   0.0000  -0.0000  -0.00    0.0
2021/05/17 02:38:44.999   22.303046361  114.177243978     0.6429   5   5  30.0000  30.0000  30.0000   0.0000   0.0000  -0.0000  -0.00    0.0
2021/05/17 02:38:45.999   22.303043775  114.177331975     3.3691   5   5  30.0000  30.0000  30.0000   0.0000   0.0000   0.0000  -0.00    0.0
2021/05/17 02:38:46.999   22.302995329  114.177448912     0.3165   5   4  30.0000  30.0000  30.0000  -0.0000  -0.0000  -0.0000  -0.00    0.0
2021/05/17 02:38:47.999   22.302973292  114.177598744     8.0873   5   5  30.0000  30.0000  30.0000   0.0000   0.0000   0.0000  -0.00    0.0
2021/05/17 02:38:48.999   22.302921851  114.177690016    12.6446   5   5  30.0000  30.0000  30.0000  -0.0000   0.0000   0.0000  -0.00    0.0
2021/05/17 02:38:50.999   22.302826586  114.177946160    27.6712   5   5  30.0000  30.0000  30.0000  -0.0000   0.0000  -0.0000  -0.00    0.0
2021/05/17 02:38:55.999   22.302658255  114.178365241   -43.2515   5   4  30.0000  30.0000  30.0000   0.0000  -0.0000  -0.0000  -0.00    0.0
2021/05/17 02:39:04.999   22.302018311  114.178698452   120.4896   5   4  30.0000  30.0000  30.0000   0.0000  -0.0000  -0.0000  -0.00    0.0
2021/05/17 02:39:06.999   22.302181855  114.179056000    76.3420   5   4  30.0000  30.0000  30.0000   0.0000  -0.0000   0.0000  -0.00    0.0
2021/05/17 02:39:07.999   22.301944691  114.178929027   -95.4201   5   4  30.0000  30.0000  30.0000   0.0000  -0.0000  -0.0000  -0.00    0.0
2021/05/17 02:39:08.999   22.301937779  114.179032129   -92.7105   5   4  30.0000  30.0000  30.0000   0.0000  -0.0000  -0.0000  -0.00    0.0
2021/05/17 02:39:25.999   22.301809442  114.179588854    70.0382   5   4  30.0000  30.0000  30.0000  -0.0000   0.0000   0.0000  -0.00    0.0
2021/05/17 02:39:27.999   22.301812072  114.179634969    67.5698   5   4  30.0000  30.0000  30.0000  -0.0000  -0.0000   0.0000  -0.00    0.0
2021/05/17 02:39:30.999   22.301930298  114.179792405    62.7385   5   4  30.0000  30.0000  30.0000   0.0000   0.0000   0.0000  -0.00    0.0
2021/05/17 02:42:43.999   22.296774379  114.175811183   142.5080   5   4  30.0000  30.0000  30.0000  -0.0000   0.0000   0.0000  -0.00    0.0
2021/05/17 02:42:56.999   22.296989216  114.175869937    17.1429   5   4  30.0000  30.0000  30.0000   0.0000  -0.0000  -0.0000  -0.00    0.0
2021/05/17 02:42:59.999   22.296962952  114.175964752    84.1361   5   4  30.0000  30.0000  30.0000  -0.0000   0.0000   0.0000  -0.00    0.0
2021/05/17 02:43:09.999   22.297206610  114.175805776    -5.4255   5   4  30.0000  30.0000  30.0000   0.0000   0.0000   0.0000  -0.00    0.0
2021/05/17 02:43:10.999   22.297223182  114.175757980    -6.6241   5   4  30.0000  30.0000  30.0000  -0.0000   0.0000   0.0000  -0.00    0.0
2021/05/17 02:43:11.999   22.297226811  114.175701244     6.0888   5   4  30.0000  30.0000  30.0000   0.0000   0.0000   0.0000  -0.00    0.0
2021/05/17 02:43:12.999   22.297248548  114.175678122    -1.0665   5   4  30.0000  30.0000  30.0000   0.0000  -0.0000   0.0000  -0.00    0.0
2021/05/17 02:44:03.999   22.300219548  114.175836719     4.4910   5   4  30.0000  30.0000  30.0000   0.0000  -0.0000   0.0000  -0.00    0.0
2021/05/17 02:44:07.999   22.300174118  114.175787596     0.7619   5   4  30.0000  30.0000  30.0000   0.0000   0.0000   0.0000  -0.00    0.0
2021/05/17 02:44:08.999   22.300156349  114.175786397    -3.7482   5   4  30.0000  30.0000  30.0000  -0.0000  -0.0000  -0.0000  -0.00    0.0
2021/05/17 02:44:11.999   22.300227822  114.175732541   -15.2651   5   4  30.0000  30.0000  30.0000  -0.0000   0.0000   0.0000  -0.00    0.0
2021/05/17 02:44:43.999   22.302250277  114.176667855    12.9142   5   4  30.0000  30.0000  30.0000  -0.0000   0.0000   0.0000  -0.00    0.0
2021/05/17 02:44:46.999   22.302091140  114.176593580   -16.5876   5   4  30.0000  30.0000  30.0000   0.0000   0.0000  -0.0000  -0.00    0.0
2021/05/17 02:44:49.999   22.302089845  114.176582288   -35.4859   5   5  30.0000  30.0000  30.0000   0.0000   0.0000   0.0000  -0.00    0.0
2021/05/17 02:44:50.999   22.302122739  114.176632594   -31.8273   5   4  30.0000  30.0000  30.0000  -0.0000   0.0000  -0.0000  -0.00    0.0
2021/05/17 02:44:51.999   22.302066534  114.176482432   -52.6383   5   4  30.0000  30.0000  30.0000  -0.0000  -0.0000   0.0000  -0.00    0.0
2021/05/17 02:44:52.999   22.302188942  114.176695335   -21.0511   5   4  30.0000  30.0000  30.0000   0.0000   0.0000   0.0000  -0.00    0.0
2021/05/17 02:44:53.999   22.302159131  114.176704637   -23.2253   5   4  30.0000  30.0000  30.0000   0.0000   0.0000  -0.0000  -0.00    0.0
2021/05/17 02:44:54.999   22.302166138  114.176786949   -18.9317   5   5  30.0000  30.0000  30.0000   0.0000   0.0000   0.0000  -0.00    0.0
2021/05/17 02:44:56.999   22.302255021  114.176736664     0.6210   5   4  30.0000  30.0000  30.0000   0.0000  -0.0000  -0.0000  -0.00    0.0
2021/05/17 02:44:57.999   22.302244367  114.176801963    -0.5690   5   4  30.0000  30.0000  30.0000   0.0000  -0.0000   0.0000  -0.00    0.0
2021/05/17 02:44:58.999   22.302247908  114.176767768    -1.2306   5   4  30.0000  30.0000  30.0000  -0.0000  -0.0000  -0.0000  -0.00    0.0
2021/05/17 02:44:59.999   22.302238944  114.176738964    -0.5924   5   4  30.0000  30.0000  30.0000   0.0000   0.0000   0.0000  -0.00    0.0
2021/05/17 02:45:09.999   22.302589872  114.176910044    14.2119   5   4  30.0000  30.0000  30.0000   0.0000  -0.0000   0.0000  -0.00    0.0
2021/05/17 02:45:10.999   22.302641028  114.176926287    16.2560   5   4  30.0000  30.0000  30.0000   0.0000   0.0000   0.0000  -0.00    0.0
2021/05/17 02:45:11.999   22.302706752  114.176953000    14.7284   5   4  30.0000  30.0000  30.0000   0.0000   0.0000  -0.0000  -0.00    0.0
2021/05/17 02:45:13.999   22.302931523  114.177252867    47.9968   5   4  30.0000  30.0000  30.0000   0.0000  -0.0000   0.0000  -0.00    0.0
2021/05/17 02:45:14.999   22.303006126  114.177256929    53.3501   5   4  30.0000  30.0000  30.0000  -0.0000  -0.0000  -0.0000  -0.00    0.0
2021/05/17 02:45:15.999   22.303071782  114.177316926    55.7313   5   4  30.0000  30.0000  30.0000   0.0000  -0.0000  -0.0000  -0.00    0.0
2021/05/17 02:45:16.999   22.303068896  114.177279737    43.3692   5   4  30.0000  30.0000  30.0000   0.0000  -0.0000  -0.0000  -0.00    0.0
2021/05/17 02:45:17.999   22.303089881  114.177286491    38.7145   5   4  30.0000  30.0000  30.0000  -0.0000   0.0000   0.0000  -0.00    0.0
2021/05/17 02:45:18.999   22.303111767  114.177335524    35.6643   5   4  30.0000  30.0000  30.0000  -0.0000  -0.0000   0.0000  -0.00    0.0
2021/05/17 02:45:20.999   22.303093099  114.177469262    34.3768   5   4  30.0000  30.0000  30.0000  -0.0000  -0.0000   0.0000  -0.00    0.0
2021/05/17 02:45:21.999   22.303137881  114.177612109    51.0844   5   4  30.0000  30.0000  30.0000  -0.0000  -0.0000   0.0000  -0.00    0.0
2021/05/17 02:45:23.999   22.302834518  114.177452958    -7.1585   5   4  30.0000  30.0000  30.0000   0.0000   0.0000   0.0000  -0.00    0.0
2021/05/17 02:45:24.999   22.302873892  114.177584180     6.6333   5   5  30.0000  30.0000  30.0000   0.0000  -0.0000   0.0000  -0.00    0.0
2021/05/17 02:45:29.999   22.302743648  114.177595809    23.3837   5   4  30.0000  30.0000  30.0000  -0.0000  -0.0000  -0.0000  -0.00    0.0
2021/05/17 02:45:30.999   22.302784989  114.177657155    36.5946   5   4  30.0000  30.0000  30.0000   0.0000  -0.0000   0.0000  -0.00    0.0
2021/05/17 02:45:31.999   22.302865718  114.177760352     6.3973   5   4  30.0000  30.0000  30.0000   0.0000   0.0000  -0.0000  -0.00    0.0
2021/05/17 02:45:32.999   22.302813736  114.177711176    12.5621   5   5  30.0000  30.0000  30.0000   0.0000   0.0000  -0.0000  -0.00    0.0
