% program   : RTKPOST ver.2.4.2
% inp file  : C:\Users\shubh\Downloads\1_lightUrban_tsimShaTsuiEast_20210517\20210517.light-urban.tste.huawei.p40pro.obs
% inp file  : C:\Users\shubh\Downloads\brdc1370.21n.gz
% obs start : 2021/05/17 02:33:13.0 GPST (week2158  95593.0s)
% obs end   : 2021/05/17 02:46:19.0 GPST (week2158  96379.0s)
% pos mode  : single
% elev mask : 15.0 deg
% ionos opt : broadcast
% tropo opt : saastamoinen
% ephemeris : broadcast
%
% (lat/lon/height=WGS84/ellipsoidal,Q=1:fix,2:float,3:sbas,4:dgps,5:single,6:ppp,ns=# of satellites)
%  GPST                  latitude(deg) longitude(deg)  height(m)   Q  ns   sdn(m)   sde(m)   sdu(m)  sdne(m)  sdeu(m)  sdun(m) age(s)  ratio
2021/05/17 02:33:20.999   22.301203432  114.178792507   -36.7221   5   4   3.7501   9.5545  13.0141  -2.8464   9.3968  -2.0392   0.00    0.0
2021/05/17 02:33:21.999   22.301199702  114.178857256   -35.5025   5   4   3.7503   9.5555  13.0144  -2.8456   9.3975  -2.0367   0.00    0.0
2021/05/17 02:33:22.999   22.301210489  114.178907343   -32.5284   5   4   3.7505   9.5564  13.0147  -2.8447   9.3982  -2.0341   0.00    0.0
2021/05/17 02:33:24.999   22.301140364  114.179072049   -13.2317   5   4   3.7510   9.5583  13.0153  -2.8430   9.3996  -2.0289   0.00    0.0
2021/05/17 02:33:30.999   22.300995876  114.179370802    30.8017   5   4   3.7524   9.5639  13.0172  -2.8380   9.4038  -2.0133   0.00    0.0
2021/05/17 02:33:32.999   22.300870143  114.179447298    33.4054   5   4   3.7529   9.5658  13.0178  -2.8363   9.4052  -2.0080   0.00    0.0
2021/05/17 02:33:33.999   22.300782891  114.179484413    41.2809   5   4   3.7531   9.5667  13.0181  -2.8354   9.4059  -2.0053   0.00    0.0
2021/05/17 02:33:34.999   22.300686002  114.179632651    47.8730   5   4   3.7534   9.5677  13.0184  -2.8345   9.4065  -2.0027   0.00    0.0
2021/05/17 02:33:35.999   22.300614195  114.179658675    58.6596   5   4   3.7536   9.5686  13.0187  -2.8337   9.4072  -2.0000   0.00    0.0
2021/05/17 02:33:38.999   22.300337483  114.179086314   166.2514   5   4   5.3978   8.6339  28.6976   5.8551 -11.2692 -10.2928   0.00    0.0
2021/05/17 02:33:40.999   22.300254188  114.179355041   119.8907   5   4   5.3902   8.6229  28.6750   5.8440 -11.2421 -10.2737   0.00    0.0
2021/05/17 02:33:43.999   22.300096074  114.179574091   242.8832   5   4   5.3788   8.6062  28.6409   5.8274 -11.2013 -10.2449   0.00    0.0
2021/05/17 02:33:48.999   22.299910194  114.179782082    71.3850   5   4   5.3600   8.5788  28.5853   5.7999 -11.1335 -10.1974   0.00    0.0
2021/05/17 02:33:49.999   22.299944066  114.179798737    46.0521   5   4   5.3563   8.5733  28.5742   5.7944 -11.1199 -10.1880   0.00    0.0
2021/05/17 02:33:50.999   22.299931703  114.179796903    46.6202   5   4   5.3526   8.5679  28.5630   5.7889 -11.1063 -10.1786   0.00    0.0
2021/05/17 02:33:54.999   22.299932284  114.179810178    36.7613   5   4   5.3378   8.5461  28.5187   5.7671 -11.0522 -10.1408   0.00    0.0
2021/05/17 02:33:58.999   22.299764120  114.178992804   186.5667   5   4   3.3345  12.5553  12.0520  -3.3851   7.0895   3.2553   0.00    0.0
2021/05/17 02:34:00.999   22.299888945  114.179826168    60.2772   5   4   5.3157   8.5139  28.4526   5.7347 -10.9712 -10.0845   0.00    0.0
2021/05/17 02:34:01.999   22.300040188  114.179913260   108.1686   5   4   5.7694   8.5361  17.8794   5.8624 -10.7333  -9.3168   0.00    0.0
2021/05/17 02:34:06.999   22.300224337  114.179999412   366.7167   5   4   8.5036   9.3002  24.0038   7.9398  13.6753  13.3503   0.00    0.0
2021/05/17 02:34:11.999   22.300161705  114.180061866    22.9492   5   5   3.6410   7.7433  10.5936   4.2897  -7.9833  -4.7276   0.00    0.0
2021/05/17 02:34:16.999   22.299884938  114.179833564    96.0627   5   5   5.1513   8.4246  17.2270   5.6218 -10.4421  -8.6633   0.00    0.0
2021/05/17 02:34:20.999   22.299845203  114.179486241    70.2241   5   4   5.2441   8.4092  28.2370   5.6287 -10.7034  -9.8987   0.00    0.0
2021/05/17 02:34:21.999   22.299732568  114.178324778   167.0671   5   5   3.2031   5.2988  10.2009  -0.5221  -4.7925   4.1519   0.00    0.0
2021/05/17 02:34:22.999   22.299916995  114.179525937    58.8819   5   4   5.2372   8.3990  28.2158   5.6183 -10.6769  -9.8804   0.00    0.0
2021/05/17 02:34:23.999   22.299950856  114.179622040   120.6266   5   5   5.1296   8.3895  17.1272   5.5878 -10.3732  -8.6121   0.00    0.0
2021/05/17 02:34:24.999   22.299877126  114.179533397   135.3731   5   5   5.1265   8.3845  17.1130   5.5830 -10.3635  -8.6048   0.00    0.0
2021/05/17 02:34:25.999   22.299839959  114.179499207   118.7354   5   4   5.2267   8.3837  28.1841   5.6027 -10.6371  -9.8527   0.00    0.0
2021/05/17 02:34:30.999   22.303511492  114.178416439   294.4175   5   4  47.6306   6.3274  26.2654 -14.5270 -10.3873  34.5070   0.00    0.0
2021/05/17 02:34:32.999   22.299944559  114.179516565    15.7138   5   4   4.1644   9.2097  11.0375   5.1543  -7.3358  -3.7145   0.00    0.0
2021/05/17 02:34:45.999   22.299691141  114.181410676   582.0974   5   4   2.8608   6.2097  10.7403  -2.4410   5.9176  -3.5254   0.00    0.0
2021/05/17 02:34:46.999   22.298780171  114.179834891   843.1348   5   4   5.4741   8.8193  19.0215   4.8638  -8.7157  -9.4849   0.00    0.0
2021/05/17 02:34:47.999   22.299447473  114.179138420    48.9513   5   4   2.9922  11.5812  23.6885   1.7749  15.5380   2.6872   0.00    0.0
2021/05/17 02:34:55.999   22.298844875  114.178733507  -132.3639   5   4   8.6553   9.3624  24.0557   8.0454  13.7589  13.5043   0.00    0.0
2021/05/17 02:34:56.999   22.298981281  114.178870312   -77.8737   5   5   2.9848   5.9439  12.0101   2.4409   6.2081   3.6106   0.00    0.0
2021/05/17 02:34:57.999   22.298721775  114.178534129  -149.7317   5   4   8.6614   9.3649  24.0576   8.0497  13.7622  13.5105   0.00    0.0
2021/05/17 02:34:58.999   22.298636433  114.178380728  -182.6322   5   4   8.6646   9.3662  24.0586   8.0518  13.7638  13.5136   0.00    0.0
2021/05/17 02:35:06.999   22.298326259  114.177898105    84.9670   5   4   5.0888   8.1847  27.7656   5.3970 -10.0999  -9.4817   0.00    0.0
2021/05/17 02:35:09.999   22.298233656  114.177695119    91.9501   5   4   5.0791   8.1708  27.7360   5.3825 -10.0611  -9.4551   0.00    0.0
2021/05/17 02:35:17.999   22.297876673  114.177251675    74.1894   5   4   5.0536   8.1342  27.6577   5.3441  -9.9578  -9.3842   0.00    0.0
2021/05/17 02:35:33.999   22.297245613  114.176124013    39.0573   5   4   5.0037   8.0629  27.5041   5.2687  -9.7524  -9.2437   0.00    0.0
2021/05/17 02:35:34.999   22.297234131  114.176100352    60.8354   5   4   5.0006   8.0585  27.4945   5.2640  -9.7397  -9.2349   0.00    0.0
2021/05/17 02:35:36.999   22.297072208  114.175866774   187.8018   5   4   4.9944   8.0497  27.4754   5.2547  -9.7140  -9.2174   0.00    0.0
2021/05/17 02:36:09.999   22.296713511  114.175357677   355.1477   5   4   4.8970   7.9117  27.1710   5.1063  -9.2972  -8.9336   0.00    0.0
2021/05/17 02:36:12.999   22.296720018  114.175338613   415.3140   5   4   4.8885   7.8997  27.1440   5.0932  -9.2597  -8.9081   0.00    0.0
2021/05/17 02:36:15.999   22.296574141  114.175149738   495.8668   5   4   4.8799   7.8876  27.1171   5.0802  -9.2220  -8.8826   0.00    0.0
2021/05/17 02:36:17.999   22.296567254  114.175138782   517.5694   5   4   4.8743   7.8797  27.0993   5.0715  -9.1970  -8.8657   0.00    0.0
2021/05/17 02:37:25.999   22.300303810  114.175990060   -27.5493   5   4   3.6038   6.2747  12.8808   3.1068   6.9702   4.8287   0.00    0.0
2021/05/17 02:37:29.999   22.300272482  114.175941476   -45.5981   5   4   3.6075   6.2771  12.8789   3.1098   6.9735   4.8333   0.00    0.0
2021/05/17 02:37:32.999   22.300402144  114.175976791   -29.5666   5   4   3.6102   6.2789  12.8775   3.1120   6.9760   4.8368   0.00    0.0
2021/05/17 02:37:35.999   22.300450186  114.175908255   -38.0922   5   4   3.6130   6.2807  12.8762   3.1142   6.9784   4.8403   0.00    0.0
2021/05/17 02:37:38.999   22.300499630  114.175959409   -19.1401   5   4   3.6158   6.2825  12.8748   3.1164   6.9808   4.8438   0.00    0.0
2021/05/17 02:37:39.999   22.300506456  114.176025961    -6.8891   5   4   3.6167   6.2831  12.8743   3.1171   6.9816   4.8449   0.00    0.0
2021/05/17 02:37:40.999   22.300502064  114.176030905    -9.7956   5   4   3.6176   6.2837  12.8739   3.1179   6.9824   4.8461   0.00    0.0
2021/05/17 02:37:43.999   22.300599793  114.176311705    21.8658   5   4   3.6204   6.2854  12.8725   3.1201   6.9848   4.8496   0.00    0.0
2021/05/17 02:37:47.999   22.300854920  114.176272367    29.6240   5   4   3.6241   6.2879  12.8707   3.1230   6.9881   4.8541   0.00    0.0
2021/05/17 02:37:49.999   22.301005943  114.176220608     8.5114   5   4   3.6259   6.2891  12.8698   3.1245   6.9897   4.8564   0.00    0.0
2021/05/17 02:38:00.999   22.301927853  114.176889769    45.2589   5   4   3.6361   6.2956  12.8651   3.1324   6.9985   4.8690   0.00    0.0
2021/05/17 02:38:07.999   22.302105432  114.176597319   -30.1165   5   4   3.6426   6.2998  12.8620   3.1376   7.0042   4.8771   0.00    0.0
2021/05/17 02:38:09.999   22.302174528  114.176562130   -42.4209   5   4   3.6445   6.3010  12.8612   3.1391   7.0058   4.8794   0.00    0.0
2021/05/17 02:38:12.999   22.302103676  114.176473361   -45.2637   5   4   3.6473   6.3028  12.8599   3.1413   7.0082   4.8829   0.00    0.0
2021/05/17 02:38:17.999   22.302287621  114.176526140   -47.8856   5   4   3.6520   6.3057  12.8578   3.1450   7.0122   4.8887   0.00    0.0
2021/05/17 02:38:19.999   22.302435147  114.177275548   104.0638   5   4   3.5867   4.8896   9.8617   2.6669   4.0412   4.2605   0.00    0.0
2021/05/17 02:38:22.999   22.302928678  114.177245474   132.8756   5   4   8.0183   4.7660  12.6790   4.6718   4.9642   9.1569   0.00    0.0
2021/05/17 02:38:26.999   22.302019958  114.176293392   132.6794   5   4   6.6604  11.1120  11.4279   7.9984  -8.6012  -5.1373   0.00    0.0
2021/05/17 02:38:28.999   22.302314898  114.176745816    15.9085   5   4   3.6624   6.3122  12.8531   3.1530   7.0208   4.9014   0.00    0.0
2021/05/17 02:38:30.999   22.302362282  114.176809507    30.5363   5   4   3.6642   6.3134  12.8522   3.1545   7.0224   4.9037   0.00    0.0
2021/05/17 02:38:34.999   22.302481543  114.176838436    12.2527   5   4   3.6680   6.3157  12.8506   3.1574   7.0256   4.9083   0.00    0.0
2021/05/17 02:38:36.999   22.302617500  114.176750725   -20.2216   5   4   3.6699   6.3169  12.8498   3.1589   7.0272   4.9106   0.00    0.0
2021/05/17 02:38:37.999   22.302651391  114.176793962   -17.1585   5   5   3.1322   6.0716  12.0560   2.5772   6.4524   3.9518   0.00    0.0
2021/05/17 02:38:38.999   22.302716809  114.176817208   -21.3962   5   5   3.1330   6.0722  12.0562   2.5778   6.4534   3.9533   0.00    0.0
2021/05/17 02:38:39.999   22.302768594  114.176869496   -20.6967   5   5   3.1337   6.0727  12.0565   2.5784   6.4544   3.9547   0.00    0.0
2021/05/17 02:38:40.999   22.302833353  114.177042931     5.9499   5   4   3.1392  12.5664  24.8139   2.9271  16.7412   4.4079   0.00    0.0
2021/05/17 02:38:41.999   22.302906493  114.176969963   -15.9927   5   5   3.1351   6.0738  12.0569   2.5796   6.4565   3.9577   0.00    0.0
2021/05/17 02:38:43.999   22.303022064  114.177122728    -6.3394   5   5   3.1365   6.0749  12.0574   2.5808   6.4586   3.9606   0.00    0.0
2021/05/17 02:38:44.999   22.303046360  114.177243978     0.6428   5   5   3.1372   6.0755  12.0576   2.5814   6.4596   3.9621   0.00    0.0
2021/05/17 02:38:45.999   22.303043775  114.177331976     3.3689   5   5   3.1379   6.0760  12.0578   2.5820   6.4606   3.9636   0.00    0.0
2021/05/17 02:38:46.999   22.302995329  114.177448912     0.3164   5   4   3.6793   6.3227  12.8458   3.1661   7.0349   4.9221   0.00    0.0
2021/05/17 02:38:47.999   22.302973292  114.177598744     8.0871   5   5   3.1393   6.0771  12.0582   2.5833   6.4626   3.9666   0.00    0.0
2021/05/17 02:38:48.999   22.302921851  114.177690016    12.6445   5   5   3.1400   6.0777  12.0585   2.5839   6.4636   3.9682   0.00    0.0
2021/05/17 02:38:50.999   22.302826586  114.177946160    27.6711   5   5   3.1415   6.0788  12.0589   2.5851   6.4656   3.9712   0.00    0.0
2021/05/17 02:38:55.999   22.302658254  114.178365241   -43.2516   5   4   4.4958   7.3566  25.8527   4.4718  -7.2655  -7.5917   0.00    0.0
2021/05/17 02:39:04.999   22.302018311  114.178698452   120.4895   5   4   4.4775   7.3323  25.7899   4.4420  -7.1564  -7.5208   0.00    0.0
2021/05/17 02:39:06.999   22.302181854  114.179056000    76.3419   5   4   4.4735   7.3270  25.7762   4.4355  -7.1324  -7.5054   0.00    0.0
2021/05/17 02:39:07.999   22.301944690  114.178929027   -95.4204   5   4   8.2495   9.1916  17.4005   7.7491  11.7457  10.2469   0.00    0.0
2021/05/17 02:39:08.999   22.301937778  114.179032129   -92.7107   5   4   8.2504   9.1912  17.3980   7.7491  11.7445  10.2463   0.00    0.0
2021/05/17 02:39:25.999   22.301809442  114.179588854    70.0377   5   4   7.0051   7.6504  12.0554   5.7039  -5.7025   4.7062   0.00    0.0
2021/05/17 02:39:27.999   22.301812071  114.179634969    67.5694   5   4   7.0061   7.6446  12.0585   5.6996  -5.6969   4.7168   0.00    0.0
2021/05/17 02:39:30.999   22.301930297  114.179792404    62.7381   5   4   7.0078   7.6358  12.0631   5.6932  -5.6886   4.7326   0.00    0.0
2021/05/17 02:42:43.999   22.296774378  114.175811183   142.5078   5   4   3.9163   6.4556  12.7698   3.3376   7.2076   5.1965   0.00    0.0
2021/05/17 02:42:56.999   22.296989215  114.175869937    17.1428   5   4   4.1237   6.8644  24.4418   3.8198  -4.1243  -5.7380   0.00    0.0
2021/05/17 02:42:59.999   22.296962952  114.175964752    84.1360   5   4   4.1205   6.8601  24.4272   3.8134  -4.0790  -5.7148   0.00    0.0
2021/05/17 02:43:09.999   22.297206610  114.175805776    -5.4256   5   4   4.1099   6.8460  24.3798   3.7925  -3.9247  -5.6376   0.00    0.0
2021/05/17 02:43:10.999   22.297223182  114.175757980    -6.6242   5   4   4.1089   6.8446  24.3750   3.7904  -3.9090  -5.6299   0.00    0.0
2021/05/17 02:43:11.999   22.297226811  114.175701244     6.0887   5   4   4.1078   6.8432  24.3703   3.7883  -3.8932  -5.6222   0.00    0.0
2021/05/17 02:43:12.999   22.297248548  114.175678122    -1.0666   5   4   4.1068   6.8418  24.3656   3.7862  -3.8775  -5.6144   0.00    0.0
2021/05/17 02:44:03.999   22.300219548  114.175836721     4.4905   5   4  13.5616  15.7125  30.1552  14.0603 -20.9225 -19.8312   0.00    0.0
2021/05/17 02:44:07.999   22.300174117  114.175787596     0.7618   5   4   4.0050   6.4997  12.7530   3.3957   7.2640   5.2926   0.00    0.0
2021/05/17 02:44:08.999   22.300156349  114.175786397    -3.7483   5   4   4.0061   6.5002  12.7529   3.3964   7.2646   5.2938   0.00    0.0
2021/05/17 02:44:11.999   22.300227821  114.175732541   -15.2652   5   4   4.0093   6.5017  12.7524   3.3985   7.2666   5.2972   0.00    0.0
2021/05/17 02:44:43.999   22.302250277  114.176667856    12.9141   5   4   4.0439   6.5179  12.7473   3.4201   7.2872   5.3338   0.00    0.0
2021/05/17 02:44:46.999   22.302091140  114.176593580   -16.5877   5   4   4.0472   6.5194  12.7469   3.4222   7.2891   5.3373   0.00    0.0
2021/05/17 02:44:49.999   22.302089844  114.176582288   -35.4860   5   5   3.4209   6.2718  12.1470   2.8024   6.8017   4.4885   0.00    0.0
2021/05/17 02:44:50.999   22.302122738  114.176632594   -31.8275   5   4  10.3117   9.6103  23.8691   8.8705  13.9958  14.8334   0.00    0.0
2021/05/17 02:44:51.999   22.302066534  114.176482432   -52.6385   5   4  10.3142   9.6100  23.8676   8.8711  13.9951  14.8348   0.00    0.0
2021/05/17 02:44:52.999   22.302188941  114.176695335   -21.0513   5   4  10.3166   9.6095  23.8661   8.8717  13.9942  14.8361   0.00    0.0
2021/05/17 02:44:53.999   22.302159131  114.176704637   -23.2255   5   4  10.3191   9.6091  23.8646   8.8723  13.9934  14.8375   0.00    0.0
2021/05/17 02:44:54.999   22.302166138  114.176786949   -18.9318   5   5   3.4251   6.2743  12.1484   2.8053   6.8059   4.4954   0.00    0.0
2021/05/17 02:44:56.999   22.302255020  114.176736665     0.6209   5   4   4.0581   6.5244  12.7454   3.4290   7.2955   5.3489   0.00    0.0
2021/05/17 02:44:57.999   22.302244366  114.176801963    -0.5691   5   4   4.0592   6.5249  12.7453   3.4296   7.2961   5.3500   0.00    0.0
2021/05/17 02:44:58.999   22.302247907  114.176767769    -1.2307   5   4   4.0603   6.5254  12.7451   3.4303   7.2967   5.3512   0.00    0.0
2021/05/17 02:44:59.999   22.302238944  114.176738965    -0.5926   5   4   4.0614   6.5259  12.7450   3.4310   7.2974   5.3523   0.00    0.0
2021/05/17 02:45:09.999   22.302589872  114.176910044    14.2118   5   4   4.0724   6.5308  12.7436   3.4378   7.3037   5.3639   0.00    0.0
2021/05/17 02:45:10.999   22.302641028  114.176926287    16.2559   5   4   4.0735   6.5313  12.7435   3.4384   7.3043   5.3650   0.00    0.0
2021/05/17 02:45:11.999   22.302706751  114.176953000    14.7283   5   4   4.0746   6.5318  12.7434   3.4391   7.3049   5.3662   0.00    0.0
2021/05/17 02:45:13.999   22.302931523  114.177252868    47.9967   5   4   4.0768   6.5328  12.7431   3.4404   7.3061   5.3684   0.00    0.0
2021/05/17 02:45:14.999   22.303006126  114.177256930    53.3500   5   4   4.0779   6.5333  12.7430   3.4411   7.3068   5.3696   0.00    0.0
2021/05/17 02:45:15.999   22.303071782  114.177316926    55.7312   5   4   4.0790   6.5338  12.7429   3.4417   7.3074   5.3707   0.00    0.0
2021/05/17 02:45:16.999   22.303068895  114.177279737    43.3691   5   4   4.0801   6.5343  12.7427   3.4424   7.3080   5.3719   0.00    0.0
2021/05/17 02:45:17.999   22.303089880  114.177286491    38.7144   5   4   4.0812   6.5348  12.7426   3.4431   7.3086   5.3730   0.00    0.0
2021/05/17 02:45:18.999   22.303111767  114.177335525    35.6641   5   4   4.0823   6.5352  12.7425   3.4438   7.3093   5.3742   0.00    0.0
2021/05/17 02:45:20.999   22.303093099  114.177469262    34.3767   5   4   4.0846   6.5362  12.7422   3.4451   7.3105   5.3765   0.00    0.0
2021/05/17 02:45:21.999   22.303137881  114.177612109    51.0842   5   4  10.3867   9.5967  23.8211   8.8876  13.9695  14.8749   0.00    0.0
2021/05/17 02:45:23.999   22.302834518  114.177452958    -7.1587   5   4   4.0879   6.5377  12.7419   3.4472   7.3123   5.3801   0.00    0.0
2021/05/17 02:45:24.999   22.302873892  114.177584181     6.6331   5   5   3.4506   6.2892  12.1569   2.8226   6.8308   4.5371   0.00    0.0
2021/05/17 02:45:29.999   22.302743647  114.177595809    23.3836   5   4   4.0946   6.5406  12.7411   3.4512   7.3160   5.3870   0.00    0.0
2021/05/17 02:45:30.999   22.302784989  114.177657155    36.5945   5   4   4.0957   6.5411  12.7409   3.4519   7.3166   5.3882   0.00    0.0
2021/05/17 02:45:31.999   22.302865718  114.177760353     6.3969   5   4   6.4904   9.9916  11.4478   7.3293  -7.7307  -4.1429   0.00    0.0
2021/05/17 02:45:32.999   22.302813736  114.177711175    12.5618   5   5   4.0029   4.2773   8.6973   2.7535   2.7321   4.5704   0.00    0.0
