% program   : RTKPOST ver.2.4.2
% inp file  : C:\Users\shubh\Downloads\1_lightUrban_tsimShaTsuiEast_20210517\20210517.light-urban.tste.ublox.f9p.obs
% inp file  : C:\Users\shubh\Downloads\hksc137c.21o
% inp file  : C:\Users\shubh\Downloads\hksc137c.21n
% inp file  : C:\Users\shubh\Downloads\hksc137c.21f
% obs start : 2021/05/17 02:33:13.0 GPST (week2158  95593.0s)
% obs end   : 2021/05/17 02:46:19.0 GPST (week2158  96379.0s)
% pos mode  : kinematic
% freqs     : L1+L2
% solution  : forward
% elev mask : 0.0 deg
% dynamics  : off
% tidecorr  : off
% ionos opt : broadcast
% tropo opt : saastamoinen
% ephemeris : broadcast
% navi sys  : gps glonass galileo qzss sbas
% amb res   : 
% amb glo   : auto calib
% val thres : 3.0
% antenna1  :                       ( 0.0000  0.0000  0.0000)
% antenna2  :                       ( 0.0000  0.0000  0.0000)
% ref pos   : 90.000000000    0.000000000 -6335367.6285
%
% (lat/lon/height=WGS84/ellipsoidal,Q=1:fix,2:float,3:sbas,4:dgps,5:single,6:ppp,ns=# of satellites)
%  GPST                  latitude(deg) longitude(deg)  height(m)   Q  ns   sdn(m)   sde(m)   sdu(m)  sdne(m)  sdeu(m)  sdun(m) age(s)  ratio
2021/05/17 02:33:21.000   22.301320047  114.178901158    37.4108   5   5  30.0000  30.0000  30.0000  -0.0000  -0.0000   0.0000   0.00    0.0
2021/05/17 02:33:26.000   22.301168458  114.178914749     4.8935   5   5  30.0000  30.0000  30.0000   0.0000   0.0000   0.0000   0.00    0.0
2021/05/17 02:33:31.000   22.300970514  114.178934802    -1.3995   5   7  30.0000  30.0000  30.0000   0.0000  -0.0000  -0.0000   0.00    0.0
2021/05/17 02:33:32.000   22.300940530  114.178989483     3.5378   5   7  30.0000  30.0000  30.0000   0.0000  -0.0000  -0.0000   0.00    0.0
2021/05/17 02:33:44.000   22.300332534  114.179702037   196.0906   5   4  30.0000  30.0000  30.0000   0.0000  -0.0000  -0.0000   0.00    0.0
2021/05/17 02:34:43.000   22.297187729  114.176154520  1043.0774   5   5  30.0000  30.0000  30.0000   0.0000  -0.0000   0.0000   0.00    0.0
2021/05/17 02:34:45.000   22.299444434  114.179235711     7.9180   5   4  30.0000  30.0000  30.0000   0.0000   0.0000   0.0000   0.00    0.0
2021/05/17 02:34:46.000   22.299418992  114.179251477    -2.5508   5   4  30.0000  30.0000  30.0000   0.0000   0.0000   0.0000   0.00    0.0
2021/05/17 02:34:47.000   22.299416566  114.179127118    -3.4402   5   5  30.0000  30.0000  30.0000  -0.0000   0.0000   0.0000   0.00    0.0
2021/05/17 02:34:48.000   22.299407447  114.179060024   -14.5993   5   5  30.0000  30.0000  30.0000   0.0000   0.0000  -0.0000   0.00    0.0
2021/05/17 02:34:52.000   22.299174077  114.178709364    13.2551   5   7  30.0000  30.0000  30.0000  -0.0000   0.0000   0.0000   0.00    0.0
2021/05/17 02:34:54.000   22.299073562  114.178796117   -16.7204   5   5  30.0000  30.0000  30.0000   0.0000   0.0000  -0.0000   0.00    0.0
2021/05/17 02:34:55.000   22.298983677  114.178656214     2.1216   5   6  30.0000  30.0000  30.0000  -0.0000   0.0000  -0.0000   0.00    0.0
2021/05/17 02:34:56.000   22.298935191  114.178580954     3.4975   5   6  30.0000  30.0000  30.0000  -0.0000  -0.0000   0.0000   0.00    0.0
2021/05/17 02:34:57.000   22.298866444  114.178493940     6.6035   5   5  30.0000  30.0000  30.0000   0.0000  -0.0000  -0.0000   0.00    0.0
2021/05/17 02:34:58.000   22.298815568  114.178437405     6.6761   5   5  30.0000  30.0000  30.0000   0.0000  -0.0000  -0.0000   0.00    0.0
2021/05/17 02:35:02.000   22.297765976  114.177004757   344.9373   5   5  30.0000  30.0000  30.0000   0.0000  -0.0000  -0.0000   0.00    0.0
2021/05/17 02:35:03.000   22.298498457  114.178141635   -21.0024   5   4  30.0000  30.0000  30.0000  -0.0000  -0.0000   0.0000   0.00    0.0
2021/05/17 02:35:04.000   22.298429477  114.178081967   -13.4490   5   5  30.0000  30.0000  30.0000   0.0000  -0.0000  -0.0000   0.00    0.0
2021/05/17 02:35:08.000   22.298230056  114.177799082     1.8519   5   4  30.0000  30.0000  30.0000  -0.0000  -0.0000  -0.0000   0.00    0.0
2021/05/17 02:35:09.000   22.298799589  114.177451523    41.3173   5   4  30.0000  30.0000  30.0000   0.0000   0.0000  -0.0000   0.00    0.0
2021/05/17 02:35:12.000   22.297953829  114.177517258     3.2788   5   5  30.0000  30.0000  30.0000   0.0000  -0.0000  -0.0000   0.00    0.0
2021/05/17 02:35:14.000   22.297899809  114.177410332    -6.1749   5   4  30.0000  30.0000  30.0000  -0.0000   0.0000   0.0000   0.00    0.0
2021/05/17 02:35:20.000   22.297527173  114.176975442    -2.4987   5   4  30.0000  30.0000  30.0000  -0.0000  -0.0000  -0.0000   0.00    0.0
2021/05/17 02:35:23.000   22.297359516  114.176847988   -16.6313   5   4  30.0000  30.0000  30.0000  -0.0000  -0.0000   0.0000   0.00    0.0
2021/05/17 02:35:25.000   22.297267023  114.176519062    12.4359   5   4  30.0000  30.0000  30.0000   0.0000   0.0000  -0.0000   0.00    0.0
2021/05/17 02:35:26.000   22.297199475  114.176517807   -12.1329   5   5  30.0000  30.0000  30.0000   0.0000   0.0000   0.0000   0.00    0.0
2021/05/17 02:35:27.000   22.297191771  114.176382347    -4.3567   5   5  30.0000  30.0000  30.0000  -0.0000  -0.0000   0.0000   0.00    0.0
2021/05/17 02:35:28.000   22.297115066  114.176383071     5.7051   5   5  30.0000  30.0000  30.0000  -0.0000  -0.0000  -0.0000   0.00    0.0
2021/05/17 02:35:29.000   22.297122751  114.176271176    21.4481   5   4  30.0000  30.0000  30.0000   0.0000   0.0000   0.0000   0.00    0.0
2021/05/17 02:35:31.000   22.297110110  114.176058276    38.5941   5   5  30.0000  30.0000  30.0000  -0.0000  -0.0000   0.0000   0.00    0.0
2021/05/17 02:35:32.000   22.297145106  114.176047975    63.8445   5   5  30.0000  30.0000  30.0000  -0.0000  -0.0000  -0.0000   0.00    0.0
2021/05/17 02:35:33.000   22.297223006  114.176101081    99.3667   5   4  30.0000  30.0000  30.0000  -0.0000   0.0000  -0.0000   0.00    0.0
2021/05/17 02:35:35.000   22.297164519  114.176038789    44.1845   5   5  30.0000  30.0000  30.0000  -0.0000   0.0000  -0.0000   0.00    0.0
2021/05/17 02:36:11.000   22.297278643  114.176062526   182.1806   5   5  30.0000  30.0000  30.0000   0.0000   0.0000   0.0000   0.00    0.0
2021/05/17 02:36:13.000   22.297247275  114.176007969   200.2920   5   5  30.0000  30.0000  30.0000   0.0000  -0.0000   0.0000   0.00    0.0
2021/05/17 02:36:14.000   22.297276105  114.176063963   181.4130   5   4  30.0000  30.0000  30.0000  -0.0000  -0.0000  -0.0000   0.00    0.0
2021/05/17 02:36:22.000   22.297235345  114.176150251   162.5164   5   5  30.0000  30.0000  30.0000   0.0000   0.0000  -0.0000   0.00    0.0
2021/05/17 02:36:23.000   22.297237001  114.176146472   163.4999   5   5  30.0000  30.0000  30.0000   0.0000   0.0000   0.0000   0.00    0.0
2021/05/17 02:36:37.000   22.297166969  114.175574402    16.9908   5   5  30.0000  30.0000  30.0000  -0.0000  -0.0000   0.0000   0.00    0.0
2021/05/17 02:36:38.000   22.297204772  114.175533661    11.8109   5   5  30.0000  30.0000  30.0000  -0.0000  -0.0000  -0.0000   0.00    0.0
2021/05/17 02:36:39.000   22.297227849  114.175501621    16.1540   5   6  30.0000  30.0000  30.0000  -0.0000   0.0000   0.0000   0.00    0.0
2021/05/17 02:36:40.000   22.297293105  114.175536915    12.1750   5   6  30.0000  30.0000  30.0000   0.0000   0.0000  -0.0000   0.00    0.0
2021/05/17 02:36:41.000   22.297376734  114.175678267    27.2167   5   6  30.0000  30.0000  30.0000   0.0000  -0.0000   0.0000   0.00    0.0
2021/05/17 02:36:42.000   22.297447784  114.175359524     5.2732   5   4  30.0000  30.0000  30.0000  -0.0000  -0.0000  -0.0000   0.00    0.0
2021/05/17 02:36:43.000   22.297526594  114.175421040     4.7690   5   4  30.0000  30.0000  30.0000   0.0000  -0.0000   0.0000   0.00    0.0
2021/05/17 02:36:44.000   22.297603120  114.175433922     4.3837   5   4  30.0000  30.0000  30.0000  -0.0000   0.0000   0.0000   0.00    0.0
2021/05/17 02:36:47.000   22.297864873  114.175486601     3.1611   5   4  30.0000  30.0000  30.0000  -0.0000  -0.0000  -0.0000   0.00    0.0
2021/05/17 02:36:52.000   22.298307438  114.175622787     6.3635   5   4  30.0000  30.0000  30.0000  -0.0000   0.0000   0.0000   0.00    0.0
2021/05/17 02:36:53.000   22.298418952  114.175677208     3.9936   5   4  30.0000  30.0000  30.0000  -0.0000  -0.0000  -0.0000   0.00    0.0
2021/05/17 02:36:54.000   22.298518761  114.175641486     1.4865   5   4  30.0000  30.0000  30.0000  -0.0000   0.0000   0.0000   0.00    0.0
2021/05/17 02:36:55.000   22.298562177  114.175652268    -4.8204   5   4  30.0000  30.0000  30.0000   0.0000  -0.0000  -0.0000   0.00    0.0
2021/05/17 02:36:56.000   22.298632572  114.175915521    10.7299   5   5  30.0000  30.0000  30.0000   0.0000  -0.0000  -0.0000   0.00    0.0
2021/05/17 02:37:14.000   22.299897238  114.175972948     4.9343   5   4  30.0000  30.0000  30.0000  -0.0000  -0.0000   0.0000   0.00    0.0
2021/05/17 02:37:15.000   22.299954452  114.175927499    -4.0586   5   4  30.0000  30.0000  30.0000  -0.0000  -0.0000   0.0000   0.00    0.0
2021/05/17 02:37:16.000   22.300031396  114.175944858    -4.9856   5   4  30.0000  30.0000  30.0000  -0.0000   0.0000   0.0000   0.00    0.0
2021/05/17 02:37:17.000   22.300125171  114.176013755     0.3146   5   4  30.0000  30.0000  30.0000   0.0000  -0.0000  -0.0000   0.00    0.0
2021/05/17 02:37:18.000   22.300200288  114.176042784     0.8447   5   4  30.0000  30.0000  30.0000  -0.0000  -0.0000  -0.0000   0.00    0.0
2021/05/17 02:37:19.000   22.300266790  114.176027864    -3.1444   5   4  30.0000  30.0000  30.0000  -0.0000  -0.0000   0.0000   0.00    0.0
2021/05/17 02:37:21.000   22.300296517  114.176044200   -12.5362   5   6  30.0000  30.0000  30.0000  -0.0000   0.0000  -0.0000   0.00    0.0
2021/05/17 02:37:22.000   22.300327078  114.176050402    -2.4580   5   6  30.0000  30.0000  30.0000  -0.0000   0.0000  -0.0000   0.00    0.0
2021/05/17 02:37:38.000   22.300372851  114.176075715     8.4607   5   5  30.0000  30.0000  30.0000  -0.0000  -0.0000  -0.0000   0.00    0.0
2021/05/17 02:37:39.000   22.300383586  114.176078587     9.2057   5   6  30.0000  30.0000  30.0000   0.0000   0.0000  -0.0000   0.00    0.0
2021/05/17 02:37:40.000   22.300384442  114.176091583     9.8071   5   5  30.0000  30.0000  30.0000  -0.0000  -0.0000   0.0000   0.00    0.0
2021/05/17 02:37:48.000   22.300774152  114.176258591    -7.3081   5   5  30.0000  30.0000  30.0000  -0.0000   0.0000   0.0000   0.00    0.0
2021/05/17 02:37:49.000   22.300871030  114.176397184   -25.0709   5   5  30.0000  30.0000  30.0000   0.0000  -0.0000  -0.0000   0.00    0.0
2021/05/17 02:37:50.000   22.300965619  114.176490666   -32.1592   5   5  30.0000  30.0000  30.0000   0.0000  -0.0000   0.0000   0.00    0.0
2021/05/17 02:37:51.000   22.300962808  114.176436834   -12.4382   5   6  30.0000  30.0000  30.0000   0.0000   0.0000   0.0000   0.00    0.0
2021/05/17 02:37:52.000   22.301125487  114.176357475     5.1625   5   4  30.0000  30.0000  30.0000  -0.0000  -0.0000   0.0000   0.00    0.0
2021/05/17 02:37:53.000   22.301187865  114.176293317    -5.3189   5   5  30.0000  30.0000  30.0000  -0.0000   0.0000   0.0000   0.00    0.0
2021/05/17 02:37:54.000   22.301259368  114.176314206     2.3893   5   5  30.0000  30.0000  30.0000  -0.0000  -0.0000  -0.0000   0.00    0.0
2021/05/17 02:37:55.000   22.301351094  114.176333315     4.5772   5   5  30.0000  30.0000  30.0000   0.0000  -0.0000   0.0000   0.00    0.0
2021/05/17 02:37:56.000   22.301462111  114.176355555     7.0701   5   6  30.0000  30.0000  30.0000  -0.0000  -0.0000  -0.0000   0.00    0.0
2021/05/17 02:37:59.000   22.301718185  114.176583620    -1.7134   5   6  30.0000  30.0000  30.0000  -0.0000   0.0000   0.0000   0.00    0.0
2021/05/17 02:38:00.000   22.301779251  114.176638362     9.3812   5   6  30.0000  30.0000  30.0000   0.0000  -0.0000  -0.0000   0.00    0.0
2021/05/17 02:38:01.000   22.301832815  114.176689647     8.1825   5   6  30.0000  30.0000  30.0000   0.0000   0.0000   0.0000   0.00    0.0
2021/05/17 02:38:02.000   22.301906277  114.176705791     7.4299   5   6  30.0000  30.0000  30.0000  -0.0000  -0.0000   0.0000   0.00    0.0
2021/05/17 02:38:06.000   22.302116678  114.176734591    10.7241   5   6  30.0000  30.0000  30.0000   0.0000  -0.0000  -0.0000   0.00    0.0
2021/05/17 02:38:07.000   22.302146717  114.176743948     6.6870   5   6  30.0000  30.0000  30.0000  -0.0000   0.0000   0.0000   0.00    0.0
2021/05/17 02:38:10.000   22.302216950  114.176883511    37.3282   5   6  30.0000  30.0000  30.0000  -0.0000  -0.0000   0.0000   0.00    0.0
2021/05/17 02:38:11.000   22.302202765  114.176800999    16.3530   5   7  30.0000  30.0000  30.0000  -0.0000  -0.0000  -0.0000   0.00    0.0
2021/05/17 02:38:12.000   22.302218446  114.176817611     9.9220   5   7  30.0000  30.0000  30.0000   0.0000  -0.0000   0.0000   0.00    0.0
2021/05/17 02:38:13.000   22.302221454  114.176741068    19.5419   5   6  30.0000  30.0000  30.0000   0.0000  -0.0000   0.0000   0.00    0.0
2021/05/17 02:38:14.000   22.302235357  114.176751101    21.5143   5   6  30.0000  30.0000  30.0000  -0.0000   0.0000   0.0000   0.00    0.0
2021/05/17 02:38:15.000   22.302228148  114.176738160    19.6746   5   6  30.0000  30.0000  30.0000  -0.0000   0.0000  -0.0000   0.00    0.0
2021/05/17 02:38:16.000   22.302206928  114.176718760    13.0711   5   5  30.0000  30.0000  30.0000  -0.0000  -0.0000   0.0000   0.00    0.0
2021/05/17 02:38:17.000   22.302206551  114.176717121    13.5492   5   5  30.0000  30.0000  30.0000  -0.0000  -0.0000   0.0000   0.00    0.0
2021/05/17 02:38:18.000   22.302206635  114.176717119    12.9535   5   5  30.0000  30.0000  30.0000  -0.0000  -0.0000  -0.0000   0.00    0.0
2021/05/17 02:38:19.000   22.302205864  114.176716526    13.3944   5   5  30.0000  30.0000  30.0000   0.0000  -0.0000  -0.0000   0.00    0.0
2021/05/17 02:38:20.000   22.302205898  114.176716374    13.2675   5   5  30.0000  30.0000  30.0000   0.0000  -0.0000   0.0000   0.00    0.0
2021/05/17 02:38:21.000   22.302204414  114.176713987    13.8349   5   5  30.0000  30.0000  30.0000  -0.0000   0.0000  -0.0000   0.00    0.0
2021/05/17 02:38:22.000   22.302204049  114.176712905    13.7591   5   5  30.0000  30.0000  30.0000   0.0000   0.0000  -0.0000   0.00    0.0
2021/05/17 02:38:23.000   22.302231452  114.176784923     4.9928   5   6  30.0000  30.0000  30.0000   0.0000  -0.0000  -0.0000   0.00    0.0
2021/05/17 02:38:24.000   22.302228964  114.176774169     6.7330   5   6  30.0000  30.0000  30.0000  -0.0000   0.0000   0.0000   0.00    0.0
2021/05/17 02:38:25.000   22.302207959  114.176716062    13.5018   5   5  30.0000  30.0000  30.0000  -0.0000   0.0000  -0.0000   0.00    0.0
2021/05/17 02:38:26.000   22.302208840  114.176718360    13.2296   5   5  30.0000  30.0000  30.0000  -0.0000  -0.0000  -0.0000   0.00    0.0
2021/05/17 02:38:27.000   22.302258588  114.176721841    33.1668   5   7  30.0000  30.0000  30.0000  -0.0000  -0.0000   0.0000   0.00    0.0
2021/05/17 02:38:28.000   22.302248186  114.176741824    19.3420   5   6  30.0000  30.0000  30.0000  -0.0000   0.0000  -0.0000   0.00    0.0
2021/05/17 02:38:29.000   22.302225635  114.176710504    15.2159   5   7  30.0000  30.0000  30.0000   0.0000  -0.0000   0.0000   0.00    0.0
2021/05/17 02:38:30.000   22.302231561  114.176718267     6.7397   5   6  30.0000  30.0000  30.0000   0.0000   0.0000   0.0000   0.00    0.0
2021/05/17 02:38:31.000   22.302246481  114.176708775    10.7415   5   7  30.0000  30.0000  30.0000   0.0000  -0.0000   0.0000   0.00    0.0
2021/05/17 02:38:32.000   22.302285890  114.176731529     6.6657   5   7  30.0000  30.0000  30.0000  -0.0000   0.0000  -0.0000   0.00    0.0
2021/05/17 02:38:33.000   22.302322179  114.176761366     5.5659   5   7  30.0000  30.0000  30.0000   0.0000  -0.0000   0.0000   0.00    0.0
2021/05/17 02:38:34.000   22.302375567  114.176805073     3.0691   5   7  30.0000  30.0000  30.0000   0.0000  -0.0000  -0.0000   0.00    0.0
2021/05/17 02:38:35.000   22.302472726  114.176981128    34.9871   5   6  30.0000  30.0000  30.0000   0.0000  -0.0000  -0.0000   0.00    0.0
2021/05/17 02:38:41.000   22.302810734  114.177057984    16.2522   5   8  30.0000  30.0000  30.0000  -0.0000  -0.0000  -0.0000   0.00    0.0
2021/05/17 02:38:42.000   22.302894885  114.177105605    11.4330   5   8  30.0000  30.0000  30.0000  -0.0000  -0.0000  -0.0000   0.00    0.0
2021/05/17 02:38:43.000   22.302924273  114.177110811     3.9518   5   8  30.0000  30.0000  30.0000   0.0000  -0.0000   0.0000   0.00    0.0
2021/05/17 02:38:44.000   22.302973333  114.177171657     8.0729   5   9  30.0000  30.0000  30.0000   0.0000   0.0000   0.0000   0.00    0.0
2021/05/17 02:38:45.000   22.302981961  114.177251504     6.6356   5   8  30.0000  30.0000  30.0000   0.0000   0.0000  -0.0000   0.00    0.0
2021/05/17 02:38:46.000   22.302971768  114.177313747     7.6380   5   8  30.0000  30.0000  30.0000   0.0000   0.0000  -0.0000   0.00    0.0
2021/05/17 02:38:47.000   22.302955998  114.177381640     8.5161   5   8  30.0000  30.0000  30.0000  -0.0000   0.0000   0.0000   0.00    0.0
2021/05/17 02:38:48.000   22.302922686  114.177456764     5.1329   5   7  30.0000  30.0000  30.0000   0.0000  -0.0000   0.0000   0.00    0.0
2021/05/17 02:38:49.000   22.302887574  114.177546841     4.2603   5   7  30.0000  30.0000  30.0000  -0.0000  -0.0000  -0.0000   0.00    0.0
2021/05/17 02:38:50.000   22.302847568  114.177637095     3.4907   5   7  30.0000  30.0000  30.0000   0.0000   0.0000  -0.0000   0.00    0.0
2021/05/17 02:38:51.000   22.302801153  114.177714717     7.0014   5   6  30.0000  30.0000  30.0000   0.0000  -0.0000  -0.0000   0.00    0.0
2021/05/17 02:38:52.000   22.302759823  114.177816121     7.6863   5   6  30.0000  30.0000  30.0000   0.0000  -0.0000   0.0000   0.00    0.0
2021/05/17 02:38:53.000   22.302720810  114.177920827    -1.2122   5   6  30.0000  30.0000  30.0000   0.0000  -0.0000  -0.0000   0.00    0.0
2021/05/17 02:38:54.000   22.302673803  114.178006172     0.0455   5   6  30.0000  30.0000  30.0000  -0.0000  -0.0000  -0.0000   0.00    0.0
2021/05/17 02:38:55.000   22.302643340  114.178110351     2.3933   5   5  30.0000  30.0000  30.0000  -0.0000   0.0000  -0.0000   0.00    0.0
2021/05/17 02:38:56.000   22.302603017  114.178214495     2.0308   5   5  30.0000  30.0000  30.0000  -0.0000   0.0000   0.0000   0.00    0.0
2021/05/17 02:38:57.000   22.302572328  114.178325675     2.6069   5   5  30.0000  30.0000  30.0000  -0.0000  -0.0000  -0.0000   0.00    0.0
2021/05/17 02:38:58.000   22.302538957  114.178473340    -6.8256   5   6  30.0000  30.0000  30.0000  -0.0000   0.0000  -0.0000   0.00    0.0
2021/05/17 02:38:59.000   22.302503166  114.178554826    -3.2444   5   6  30.0000  30.0000  30.0000  -0.0000  -0.0000  -0.0000   0.00    0.0
2021/05/17 02:39:02.000   22.302453597  114.178806350     9.5260   5   7  30.0000  30.0000  30.0000   0.0000   0.0000   0.0000   0.00    0.0
2021/05/17 02:39:03.000   22.302371313  114.178845298    17.3264   5   4  30.0000  30.0000  30.0000   0.0000  -0.0000  -0.0000   0.00    0.0
2021/05/17 02:39:05.000   22.302525454  114.179273909    14.1614   5   4  30.0000  30.0000  30.0000   0.0000   0.0000   0.0000   0.00    0.0
2021/05/17 02:39:06.000   22.302472269  114.179254757     8.2744   5   4  30.0000  30.0000  30.0000   0.0000  -0.0000   0.0000   0.00    0.0
2021/05/17 02:39:07.000   22.302358858  114.179149596   -20.8104   5   5  30.0000  30.0000  30.0000  -0.0000   0.0000   0.0000   0.00    0.0
2021/05/17 02:39:09.000   22.301985259  114.178799704   118.6352   5   5  30.0000  30.0000  30.0000   0.0000  -0.0000  -0.0000   0.00    0.0
2021/05/17 02:39:11.000   22.302303962  114.179473910    -2.8401   5   6  30.0000  30.0000  30.0000  -0.0000   0.0000   0.0000   0.00    0.0
2021/05/17 02:39:12.000   22.302242268  114.179533328    -2.2070   5   5  30.0000  30.0000  30.0000   0.0000   0.0000   0.0000   0.00    0.0
2021/05/17 02:39:14.000   22.302165385  114.179603687    -4.9706   5   6  30.0000  30.0000  30.0000   0.0000   0.0000   0.0000   0.00    0.0
2021/05/17 02:39:15.000   22.301968422  114.179496419    40.3734   5   6  30.0000  30.0000  30.0000  -0.0000  -0.0000  -0.0000   0.00    0.0
2021/05/17 02:39:16.000   22.301998403  114.179621975     8.0836   5   6  30.0000  30.0000  30.0000   0.0000  -0.0000  -0.0000   0.00    0.0
2021/05/17 02:39:18.000   22.301876606  114.179739169    20.3317   5   7  30.0000  30.0000  30.0000  -0.0000   0.0000   0.0000   0.00    0.0
2021/05/17 02:39:19.000   22.301855269  114.179719475    16.3464   5   7  30.0000  30.0000  30.0000   0.0000   0.0000  -0.0000   0.00    0.0
2021/05/17 02:39:20.000   22.301836350  114.179677460    14.9040   5   7  30.0000  30.0000  30.0000   0.0000   0.0000   0.0000   0.00    0.0
2021/05/17 02:39:21.000   22.301803454  114.179589937    23.9977   5   5  30.0000  30.0000  30.0000  -0.0000   0.0000   0.0000   0.00    0.0
2021/05/17 02:39:22.000   22.301826588  114.179631668     7.2876   5   6  30.0000  30.0000  30.0000  -0.0000   0.0000  -0.0000   0.00    0.0
2021/05/17 02:39:23.000   22.301806248  114.179619392    16.3274   5   7  30.0000  30.0000  30.0000   0.0000   0.0000   0.0000   0.00    0.0
2021/05/17 02:39:24.000   22.301797456  114.179572423    17.9469   5   7  30.0000  30.0000  30.0000   0.0000   0.0000  -0.0000   0.00    0.0
2021/05/17 02:39:25.000   22.301790627  114.179566516    17.8781   5   7  30.0000  30.0000  30.0000  -0.0000   0.0000   0.0000   0.00    0.0
2021/05/17 02:39:26.000   22.301767921  114.179575944    17.5496   5   7  30.0000  30.0000  30.0000   0.0000  -0.0000  -0.0000   0.00    0.0
2021/05/17 02:39:27.000   22.301759891  114.179568736    18.3612   5   7  30.0000  30.0000  30.0000   0.0000  -0.0000  -0.0000   0.00    0.0
2021/05/17 02:39:28.000   22.301754992  114.179583223    21.6079   5   7  30.0000  30.0000  30.0000  -0.0000   0.0000   0.0000   0.00    0.0
2021/05/17 02:39:29.000   22.301756256  114.179579862    19.9822   5   7  30.0000  30.0000  30.0000  -0.0000  -0.0000  -0.0000   0.00    0.0
2021/05/17 02:39:34.000   22.301714821  114.179584168    11.7191   5   8  30.0000  30.0000  30.0000  -0.0000   0.0000  -0.0000   0.00    0.0
2021/05/17 02:39:35.000   22.301650305  114.179530890     8.1233   5   8  30.0000  30.0000  30.0000  -0.0000  -0.0000   0.0000   0.00    0.0
2021/05/17 02:39:36.000   22.301585424  114.179471948     5.0868   5   8  30.0000  30.0000  30.0000  -0.0000  -0.0000  -0.0000   0.00    0.0
2021/05/17 02:39:37.000   22.301534102  114.179401294     9.8408   5   6  30.0000  30.0000  30.0000  -0.0000  -0.0000   0.0000   0.00    0.0
2021/05/17 02:39:38.000   22.301533636  114.179299794     7.3745   5   5  30.0000  30.0000  30.0000   0.0000   0.0000  -0.0000   0.00    0.0
2021/05/17 02:39:39.000   22.301490771  114.179243007     5.2711   5   6  30.0000  30.0000  30.0000  -0.0000  -0.0000   0.0000   0.00    0.0
2021/05/17 02:39:41.000   22.301567901  114.178940009     6.4393   5   5  30.0000  30.0000  30.0000   0.0000  -0.0000   0.0000   0.00    0.0
2021/05/17 02:39:42.000   22.301656234  114.178913456    -7.3011   5   5  30.0000  30.0000  30.0000  -0.0000   0.0000  -0.0000   0.00    0.0
2021/05/17 02:39:43.000   22.301635019  114.178873888    -0.4203   5   4  30.0000  30.0000  30.0000   0.0000   0.0000  -0.0000   0.00    0.0
2021/05/17 02:39:44.000   22.301406523  114.178921479     8.7799   5   5  30.0000  30.0000  30.0000  -0.0000  -0.0000   0.0000   0.00    0.0
2021/05/17 02:39:45.000   22.301318139  114.178937535     8.1791   5   6  30.0000  30.0000  30.0000  -0.0000   0.0000   0.0000   0.00    0.0
2021/05/17 02:39:46.000   22.301234887  114.178927703    -2.8954   5   4  30.0000  30.0000  30.0000   0.0000  -0.0000  -0.0000   0.00    0.0
2021/05/17 02:39:47.000   22.301270429  114.178896792    -4.2711   5   6  30.0000  30.0000  30.0000   0.0000   0.0000  -0.0000   0.00    0.0
2021/05/17 02:39:48.000   22.301235146  114.178939798   -11.6273   5   5  30.0000  30.0000  30.0000  -0.0000   0.0000  -0.0000   0.00    0.0
2021/05/17 02:39:49.000   22.301210909  114.178951107   -10.8306   5   5  30.0000  30.0000  30.0000   0.0000  -0.0000  -0.0000   0.00    0.0
2021/05/17 02:39:50.000   22.301189767  114.178954948    -8.9224   5   5  30.0000  30.0000  30.0000  -0.0000  -0.0000  -0.0000   0.00    0.0
2021/05/17 02:39:51.000   22.301166830  114.178953143    -7.1325   5   5  30.0000  30.0000  30.0000   0.0000   0.0000  -0.0000   0.00    0.0
2021/05/17 02:39:52.000   22.301166029  114.178959129    -8.6170   5   5  30.0000  30.0000  30.0000   0.0000   0.0000   0.0000   0.00    0.0
2021/05/17 02:39:53.000   22.301179907  114.178957124    -8.4293   5   5  30.0000  30.0000  30.0000   0.0000   0.0000  -0.0000   0.00    0.0
2021/05/17 02:39:54.000   22.301179518  114.178958089    -8.8977   5   5  30.0000  30.0000  30.0000   0.0000  -0.0000   0.0000   0.00    0.0
2021/05/17 02:39:55.000   22.301172847  114.178960939    -9.0537   5   5  30.0000  30.0000  30.0000  -0.0000  -0.0000  -0.0000   0.00    0.0
2021/05/17 02:39:56.000   22.301142539  114.178975590    -7.5296   5   4  30.0000  30.0000  30.0000   0.0000  -0.0000   0.0000   0.00    0.0
2021/05/17 02:39:57.000   22.301158325  114.178969108    -7.4575   5   4  30.0000  30.0000  30.0000   0.0000  -0.0000  -0.0000   0.00    0.0
2021/05/17 02:39:58.000   22.300854934  114.179104783   -18.8006   5   4  30.0000  30.0000  30.0000  -0.0000  -0.0000  -0.0000   0.00    0.0
2021/05/17 02:39:59.000   22.300924916  114.179071858   -15.9575   5   4  30.0000  30.0000  30.0000   0.0000   0.0000  -0.0000   0.00    0.0
2021/05/17 02:40:00.000   22.301004213  114.179035948   -13.0793   5   4  30.0000  30.0000  30.0000  -0.0000  -0.0000  -0.0000   0.00    0.0
2021/05/17 02:40:01.000   22.301016867  114.179030069   -12.7415   5   4  30.0000  30.0000  30.0000   0.0000  -0.0000  -0.0000   0.00    0.0
2021/05/17 02:40:02.000   22.301052096  114.179014262   -11.7377   5   4  30.0000  30.0000  30.0000   0.0000   0.0000  -0.0000   0.00    0.0
2021/05/17 02:40:03.000   22.301092799  114.178995471   -10.4136   5   4  30.0000  30.0000  30.0000  -0.0000   0.0000   0.0000   0.00    0.0
2021/05/17 02:40:04.000   22.301090567  114.178998288   -10.9549   5   4  30.0000  30.0000  30.0000  -0.0000   0.0000   0.0000   0.00    0.0
2021/05/17 02:40:05.000   22.301063947  114.179010775   -11.9455   5   4  30.0000  30.0000  30.0000   0.0000  -0.0000  -0.0000   0.00    0.0
2021/05/17 02:40:12.000   22.301275703  114.178917737    -4.0752   5   4  30.0000  30.0000  30.0000   0.0000   0.0000   0.0000   0.00    0.0
2021/05/17 02:40:13.000   22.301250802  114.178929513    -5.3721   5   4  30.0000  30.0000  30.0000  -0.0000   0.0000   0.0000   0.00    0.0
2021/05/17 02:40:14.000   22.301244523  114.178933521    -5.6555   5   4  30.0000  30.0000  30.0000  -0.0000   0.0000   0.0000   0.00    0.0
2021/05/17 02:40:15.000   22.301231074  114.178939521    -6.3050   5   4  30.0000  30.0000  30.0000   0.0000  -0.0000  -0.0000   0.00    0.0
2021/05/17 02:40:16.000   22.301222071  114.178943588    -6.5362   5   4  30.0000  30.0000  30.0000   0.0000   0.0000  -0.0000   0.00    0.0
2021/05/17 02:40:17.000   22.301216359  114.178946142    -7.2990   5   4  30.0000  30.0000  30.0000   0.0000  -0.0000   0.0000   0.00    0.0
2021/05/17 02:40:18.000   22.301176168  114.178964559    -8.4529   5   4  30.0000  30.0000  30.0000   0.0000  -0.0000   0.0000   0.00    0.0
2021/05/17 02:40:19.000   22.301165097  114.178969633    -8.5669   5   4  30.0000  30.0000  30.0000  -0.0000   0.0000   0.0000   0.00    0.0
2021/05/17 02:40:20.000   22.301142302  114.178979528    -9.7524   5   4  30.0000  30.0000  30.0000  -0.0000  -0.0000   0.0000   0.00    0.0
2021/05/17 02:40:21.000   22.301133844  114.178983067   -10.3446   5   4  30.0000  30.0000  30.0000   0.0000  -0.0000  -0.0000   0.00    0.0
2021/05/17 02:40:22.000   22.301108598  114.178993463   -11.3181   5   4  30.0000  30.0000  30.0000  -0.0000  -0.0000   0.0000   0.00    0.0
2021/05/17 02:40:23.000   22.301108280  114.178993464   -11.7045   5   4  30.0000  30.0000  30.0000   0.0000  -0.0000  -0.0000   0.00    0.0
2021/05/17 02:40:24.000   22.301105272  114.178994652   -12.0657   5   4  30.0000  30.0000  30.0000  -0.0000  -0.0000  -0.0000   0.00    0.0
2021/05/17 02:40:25.000   22.301109832  114.178993497   -11.9281   5   4  30.0000  30.0000  30.0000  -0.0000  -0.0000  -0.0000   0.00    0.0
2021/05/17 02:40:26.000   22.301095083  114.179000075   -12.5077   5   4  30.0000  30.0000  30.0000  -0.0000  -0.0000   0.0000   0.00    0.0
2021/05/17 02:40:27.000   22.301074103  114.179010250   -13.6821   5   4  30.0000  30.0000  30.0000   0.0000   0.0000  -0.0000   0.00    0.0
2021/05/17 02:40:28.000   22.301090091  114.179003304   -13.2720   5   4  30.0000  30.0000  30.0000  -0.0000  -0.0000   0.0000   0.00    0.0
2021/05/17 02:40:29.000   22.301090911  114.179003461   -13.2665   5   4  30.0000  30.0000  30.0000  -0.0000  -0.0000  -0.0000   0.00    0.0
2021/05/17 02:40:34.000   22.302586555  114.178331099    37.3112   5   4  30.0000  30.0000  30.0000   0.0000  -0.0000  -0.0000   0.00    0.0
2021/05/17 02:40:35.000   22.302502887  114.178367578    34.4048   5   4  30.0000  30.0000  30.0000   0.0000   0.0000   0.0000   0.00    0.0
2021/05/17 02:40:36.000   22.302506598  114.178366854    34.7962   5   4  30.0000  30.0000  30.0000   0.0000  -0.0000   0.0000   0.00    0.0
2021/05/17 02:40:38.000   22.299995977  114.179502227   -51.8226   5   4  30.0000  30.0000  30.0000   0.0000   0.0000   0.0000   0.00    0.0
2021/05/17 02:40:39.000   22.300106502  114.179452597   -48.2523   5   4  30.0000  30.0000  30.0000  -0.0000  -0.0000  -0.0000   0.00    0.0
2021/05/17 02:40:40.000   22.300157809  114.179430319   -46.2730   5   4  30.0000  30.0000  30.0000  -0.0000   0.0000  -0.0000   0.00    0.0
2021/05/17 02:40:41.000   22.300198951  114.179412037   -44.9272   5   4  30.0000  30.0000  30.0000  -0.0000  -0.0000  -0.0000   0.00    0.0
2021/05/17 02:40:46.000   22.301180046  114.178968910   -11.3293   5   4  30.0000  30.0000  30.0000   0.0000   0.0000  -0.0000   0.00    0.0
2021/05/17 02:40:47.000   22.301161966  114.178977339   -11.7157   5   4  30.0000  30.0000  30.0000   0.0000  -0.0000  -0.0000   0.00    0.0
2021/05/17 02:40:48.000   22.301162507  114.178978256   -11.1794   5   4  30.0000  30.0000  30.0000   0.0000  -0.0000  -0.0000   0.00    0.0
2021/05/17 02:40:49.000   22.301135257  114.178990542   -12.3981   5   4  30.0000  30.0000  30.0000  -0.0000   0.0000  -0.0000   0.00    0.0
2021/05/17 02:40:50.000   22.301103557  114.179004835   -13.0096   5   4  30.0000  30.0000  30.0000   0.0000   0.0000  -0.0000   0.00    0.0
2021/05/17 02:41:01.000   22.300851723  114.179011568   -17.0295   5   5  30.0000  30.0000  30.0000   0.0000   0.0000   0.0000   0.00    0.0
2021/05/17 02:41:02.000   22.300794652  114.178982100    10.3690   5   6  30.0000  30.0000  30.0000   0.0000  -0.0000  -0.0000   0.00    0.0
2021/05/17 02:41:04.000   22.300747772  114.179314557     1.1135   5   5  30.0000  30.0000  30.0000  -0.0000  -0.0000  -0.0000   0.00    0.0
2021/05/17 02:41:19.000   22.300048451  114.179795313    22.9612   5   7  30.0000  30.0000  30.0000   0.0000  -0.0000  -0.0000   0.00    0.0
2021/05/17 02:41:26.000   22.299350168  114.179096658    37.2958   5   4  30.0000  30.0000  30.0000   0.0000   0.0000  -0.0000   0.00    0.0
2021/05/17 02:41:27.000   22.299301226  114.179058287    30.1708   5   5  30.0000  30.0000  30.0000  -0.0000   0.0000  -0.0000   0.00    0.0
2021/05/17 02:41:28.000   22.299235978  114.178899217    52.2341   5   4  30.0000  30.0000  30.0000  -0.0000  -0.0000   0.0000   0.00    0.0
2021/05/17 02:41:29.000   22.299201746  114.178931638    38.2893   5   5  30.0000  30.0000  30.0000  -0.0000   0.0000  -0.0000   0.00    0.0
2021/05/17 02:41:32.000   22.298987009  114.178616493    48.7867   5   4  30.0000  30.0000  30.0000  -0.0000  -0.0000   0.0000   0.00    0.0
2021/05/17 02:41:33.000   22.298967770  114.178605523    46.3687   5   5  30.0000  30.0000  30.0000   0.0000  -0.0000  -0.0000   0.00    0.0
2021/05/17 02:41:34.000   22.298961742  114.178637302    40.8886   5   6  30.0000  30.0000  30.0000   0.0000  -0.0000   0.0000   0.00    0.0
2021/05/17 02:41:35.000   22.298944114  114.178652417    17.0354   5   6  30.0000  30.0000  30.0000  -0.0000  -0.0000  -0.0000   0.00    0.0
2021/05/17 02:41:36.000   22.298911408  114.178616859    11.9524   5   6  30.0000  30.0000  30.0000   0.0000   0.0000   0.0000   0.00    0.0
2021/05/17 02:41:37.000   22.298879419  114.178535989    12.3352   5   6  30.0000  30.0000  30.0000  -0.0000  -0.0000  -0.0000   0.00    0.0
2021/05/17 02:41:39.000   22.298835203  114.178454373     7.0641   5   5  30.0000  30.0000  30.0000   0.0000  -0.0000   0.0000   0.00    0.0
2021/05/17 02:41:40.000   22.298797372  114.178415173     8.0313   5   5  30.0000  30.0000  30.0000  -0.0000   0.0000   0.0000   0.00    0.0
2021/05/17 02:41:41.000   22.298758779  114.178368323     8.7604   5   5  30.0000  30.0000  30.0000  -0.0000  -0.0000   0.0000   0.00    0.0
2021/05/17 02:41:42.000   22.298716485  114.178327655    11.7879   5   5  30.0000  30.0000  30.0000  -0.0000   0.0000  -0.0000   0.00    0.0
2021/05/17 02:41:43.000   22.298688520  114.178196892    27.1567   5   5  30.0000  30.0000  30.0000  -0.0000  -0.0000  -0.0000   0.00    0.0
2021/05/17 02:41:44.000   22.298661629  114.178145400    26.3832   5   5  30.0000  30.0000  30.0000   0.0000   0.0000   0.0000   0.00    0.0
2021/05/17 02:41:50.000   22.298424271  114.178014192    26.0432   5   4  30.0000  30.0000  30.0000  -0.0000  -0.0000  -0.0000   0.00    0.0
2021/05/17 02:41:51.000   22.298420947  114.177995532    24.1192   5   4  30.0000  30.0000  30.0000   0.0000  -0.0000   0.0000   0.00    0.0
2021/05/17 02:41:53.000   22.298608092  114.178287648   -61.0255   5   4  30.0000  30.0000  30.0000   0.0000   0.0000   0.0000   0.00    0.0
2021/05/17 02:41:54.000   22.298600562  114.178256990   -59.0738   5   5  30.0000  30.0000  30.0000   0.0000   0.0000  -0.0000   0.00    0.0
2021/05/17 02:41:55.000   22.298558454  114.178221876   -49.7418   5   5  30.0000  30.0000  30.0000  -0.0000  -0.0000   0.0000   0.00    0.0
2021/05/17 02:41:56.000   22.298536188  114.178192597   -47.6873   5   5  30.0000  30.0000  30.0000  -0.0000  -0.0000  -0.0000   0.00    0.0
2021/05/17 02:41:57.000   22.298497480  114.178125919   -28.2002   5   5  30.0000  30.0000  30.0000   0.0000  -0.0000   0.0000   0.00    0.0
2021/05/17 02:41:58.000   22.298422054  114.178076211   -10.8507   5   6  30.0000  30.0000  30.0000   0.0000   0.0000  -0.0000   0.00    0.0
2021/05/17 02:41:59.000   22.298375268  114.178073990   -18.7130   5   6  30.0000  30.0000  30.0000   0.0000  -0.0000  -0.0000   0.00    0.0
2021/05/17 02:42:00.000   22.298279188  114.178048892   -18.5756   5   5  30.0000  30.0000  30.0000   0.0000  -0.0000  -0.0000   0.00    0.0
2021/05/17 02:42:01.000   22.298612037  114.177569604    51.1906   5   4  30.0000  30.0000  30.0000  -0.0000   0.0000  -0.0000   0.00    0.0
2021/05/17 02:42:05.000   22.298077111  114.177246732    94.7910   5   4  30.0000  30.0000  30.0000  -0.0000  -0.0000  -0.0000   0.00    0.0
2021/05/17 02:42:10.000   22.297734059  114.177076381    57.5131   5   7  30.0000  30.0000  30.0000   0.0000  -0.0000  -0.0000   0.00    0.0
2021/05/17 02:42:11.000   22.297657496  114.177055399    51.3337   5   6  30.0000  30.0000  30.0000   0.0000   0.0000   0.0000   0.00    0.0
2021/05/17 02:42:12.000   22.297585583  114.176999185    50.4094   5   5  30.0000  30.0000  30.0000   0.0000  -0.0000  -0.0000   0.00    0.0
2021/05/17 02:42:13.000   22.297508445  114.176940294    54.2423   5   5  30.0000  30.0000  30.0000  -0.0000   0.0000   0.0000   0.00    0.0
2021/05/17 02:42:17.000   22.297304122  114.176304793   143.7831   5   5  30.0000  30.0000  30.0000  -0.0000  -0.0000   0.0000   0.00    0.0
2021/05/17 02:42:24.000   22.297114802  114.176258276    21.5733   5   6  30.0000  30.0000  30.0000  -0.0000   0.0000   0.0000   0.00    0.0
2021/05/17 02:42:25.000   22.297126514  114.176224060    24.1027   5   7  30.0000  30.0000  30.0000   0.0000  -0.0000  -0.0000   0.00    0.0
2021/05/17 02:42:26.000   22.297116959  114.176208199    30.9397   5   7  30.0000  30.0000  30.0000  -0.0000  -0.0000   0.0000   0.00    0.0
2021/05/17 02:42:27.000   22.297089513  114.176185241    34.4135   5   7  30.0000  30.0000  30.0000  -0.0000   0.0000  -0.0000   0.00    0.0
2021/05/17 02:44:43.000   22.302156683  114.176733440    13.3460   5   7  30.0000  30.0000  30.0000   0.0000   0.0000   0.0000   0.00    0.0
2021/05/17 02:44:50.000   22.302124196  114.176598887     3.6369   5   7  30.0000  30.0000  30.0000  -0.0000  -0.0000   0.0000   0.00    0.0
2021/05/17 02:44:51.000   22.302119387  114.176583644     0.8805   5   7  30.0000  30.0000  30.0000   0.0000   0.0000   0.0000   0.00    0.0
2021/05/17 02:44:52.000   22.302123102  114.176654399    -7.8756   5   6  30.0000  30.0000  30.0000  -0.0000  -0.0000  -0.0000   0.00    0.0
2021/05/17 02:44:53.000   22.302123913  114.176651800    -8.4477   5   6  30.0000  30.0000  30.0000  -0.0000  -0.0000   0.0000   0.00    0.0
2021/05/17 02:44:54.000   22.302120426  114.176647691   -10.3590   5   6  30.0000  30.0000  30.0000   0.0000  -0.0000  -0.0000   0.00    0.0
2021/05/17 02:44:55.000   22.302121151  114.176651311    -9.8145   5   6  30.0000  30.0000  30.0000   0.0000   0.0000  -0.0000   0.00    0.0
2021/05/17 02:44:56.000   22.302117089  114.176646283   -11.6262   5   6  30.0000  30.0000  30.0000   0.0000   0.0000  -0.0000   0.00    0.0
2021/05/17 02:44:57.000   22.302117613  114.176646188   -12.1797   5   6  30.0000  30.0000  30.0000   0.0000  -0.0000  -0.0000   0.00    0.0
2021/05/17 02:44:58.000   22.302115882  114.176642899   -13.1830   5   6  30.0000  30.0000  30.0000  -0.0000  -0.0000   0.0000   0.00    0.0
2021/05/17 02:44:59.000   22.302113401  114.176637834   -14.7019   5   6  30.0000  30.0000  30.0000   0.0000  -0.0000  -0.0000   0.00    0.0
2021/05/17 02:45:00.000   22.302111627  114.176632239   -16.2428   5   6  30.0000  30.0000  30.0000   0.0000  -0.0000  -0.0000   0.00    0.0
2021/05/17 02:45:02.000   22.302128240  114.176650574   -11.9507   5   6  30.0000  30.0000  30.0000  -0.0000   0.0000   0.0000   0.00    0.0
2021/05/17 02:45:03.000   22.302142553  114.176687239    -8.3116   5   6  30.0000  30.0000  30.0000  -0.0000   0.0000   0.0000   0.00    0.0
2021/05/17 02:45:04.000   22.302156512  114.176671545    -6.3873   5   6  30.0000  30.0000  30.0000  -0.0000  -0.0000  -0.0000   0.00    0.0
2021/05/17 02:45:05.000   22.302189822  114.176747188    -0.2261   5   7  30.0000  30.0000  30.0000  -0.0000   0.0000   0.0000   0.00    0.0
2021/05/17 02:45:06.000   22.302237431  114.176778547    -1.2716   5   7  30.0000  30.0000  30.0000   0.0000  -0.0000   0.0000   0.00    0.0
2021/05/17 02:45:07.000   22.302282256  114.176769048    -1.8901   5   7  30.0000  30.0000  30.0000   0.0000  -0.0000  -0.0000   0.00    0.0
2021/05/17 02:45:08.000   22.302332813  114.176800645     0.7126   5   7  30.0000  30.0000  30.0000  -0.0000  -0.0000  -0.0000   0.00    0.0
2021/05/17 02:45:09.000   22.302386923  114.176834206     1.5359   5   6  30.0000  30.0000  30.0000   0.0000   0.0000  -0.0000   0.00    0.0
2021/05/17 02:45:10.000   22.302461157  114.176851060     0.5953   5   6  30.0000  30.0000  30.0000   0.0000   0.0000   0.0000   0.00    0.0
2021/05/17 02:45:11.000   22.302526242  114.176877205    -2.7711   5   6  30.0000  30.0000  30.0000  -0.0000  -0.0000   0.0000   0.00    0.0
2021/05/17 02:45:12.000   22.302596638  114.176905803    -3.8580   5   6  30.0000  30.0000  30.0000  -0.0000   0.0000  -0.0000   0.00    0.0
2021/05/17 02:45:15.000   22.302800735  114.176987177     5.8366   5   8  30.0000  30.0000  30.0000  -0.0000  -0.0000   0.0000   0.00    0.0
2021/05/17 02:45:16.000   22.302869256  114.177073347    -0.8781   5   7  30.0000  30.0000  30.0000  -0.0000   0.0000  -0.0000   0.00    0.0
2021/05/17 02:45:17.000   22.302919472  114.177115676     0.3424   5   7  30.0000  30.0000  30.0000  -0.0000   0.0000   0.0000   0.00    0.0
2021/05/17 02:45:18.000   22.302965305  114.177163606     1.9616   5   7  30.0000  30.0000  30.0000  -0.0000  -0.0000  -0.0000   0.00    0.0
2021/05/17 02:45:19.000   22.302994243  114.177215638     3.6154   5   6  30.0000  30.0000  30.0000  -0.0000   0.0000   0.0000   0.00    0.0
2021/05/17 02:45:20.000   22.303001079  114.177268658     4.3839   5   6  30.0000  30.0000  30.0000  -0.0000   0.0000  -0.0000   0.00    0.0
2021/05/17 02:45:21.000   22.302993511  114.177367198     8.5638   5   7  30.0000  30.0000  30.0000   0.0000   0.0000   0.0000   0.00    0.0
2021/05/17 02:45:22.000   22.302977379  114.177386111     8.1707   5   7  30.0000  30.0000  30.0000  -0.0000   0.0000   0.0000   0.00    0.0
2021/05/17 02:45:23.000   22.302960972  114.177417478     9.3085   5   7  30.0000  30.0000  30.0000   0.0000  -0.0000   0.0000   0.00    0.0
2021/05/17 02:45:24.000   22.302937904  114.177468766     8.7171   5   7  30.0000  30.0000  30.0000  -0.0000   0.0000   0.0000   0.00    0.0
2021/05/17 02:45:25.000   22.302918671  114.177511778     9.8415   5   7  30.0000  30.0000  30.0000   0.0000   0.0000   0.0000   0.00    0.0
2021/05/17 02:45:26.000   22.302881951  114.177553977     2.7741   5   6  30.0000  30.0000  30.0000  -0.0000   0.0000  -0.0000   0.00    0.0
2021/05/17 02:45:27.000   22.302867702  114.177588582     3.0535   5   6  30.0000  30.0000  30.0000   0.0000   0.0000   0.0000   0.00    0.0
2021/05/17 02:45:28.000   22.302858361  114.177620371     2.8199   5   6  30.0000  30.0000  30.0000   0.0000  -0.0000   0.0000   0.00    0.0
2021/05/17 02:45:29.000   22.302849489  114.177640888     2.3995   5   6  30.0000  30.0000  30.0000  -0.0000   0.0000  -0.0000   0.00    0.0
2021/05/17 02:45:30.000   22.302830986  114.177657581     4.5218   5   6  30.0000  30.0000  30.0000   0.0000   0.0000  -0.0000   0.00    0.0
2021/05/17 02:45:31.000   22.302814126  114.177689061     5.1190   5   6  30.0000  30.0000  30.0000   0.0000   0.0000  -0.0000   0.00    0.0
2021/05/17 02:45:32.000   22.302801904  114.177724535     1.0255   5   5  30.0000  30.0000  30.0000  -0.0000  -0.0000  -0.0000   0.00    0.0
2021/05/17 02:45:33.000   22.302803979  114.177786286    -4.7585   5   6  30.0000  30.0000  30.0000  -0.0000   0.0000   0.0000   0.00    0.0
2021/05/17 02:45:34.000   22.302745778  114.177800893    -7.8638   5   4  30.0000  30.0000  30.0000   0.0000   0.0000  -0.0000   0.00    0.0
2021/05/17 02:45:37.000   22.303133440  114.178299009   261.5918   5   4  30.0000  30.0000  30.0000   0.0000   0.0000  -0.0000   0.00    0.0
2021/05/17 02:45:40.000   22.302579800  114.178186030    -3.0618   5   4  30.0000  30.0000  30.0000   0.0000   0.0000   0.0000   0.00    0.0
2021/05/17 02:45:42.000   22.303050483  114.178715753   283.9768   5   4  30.0000  30.0000  30.0000  -0.0000   0.0000  -0.0000   0.00    0.0
2021/05/17 02:45:44.000   22.302250763  114.178297686   113.2602   5   4  30.0000  30.0000  30.0000  -0.0000  -0.0000   0.0000   0.00    0.0
2021/05/17 02:45:55.000   22.302344513  114.179483856     5.7637   5   5  30.0000  30.0000  30.0000  -0.0000  -0.0000   0.0000   0.00    0.0
2021/05/17 02:45:56.000   22.302284373  114.179538026     1.8964   5   5  30.0000  30.0000  30.0000  -0.0000  -0.0000  -0.0000   0.00    0.0
2021/05/17 02:45:57.000   22.302624373  114.179838731   217.1839   5   4  30.0000  30.0000  30.0000  -0.0000  -0.0000  -0.0000   0.00    0.0
2021/05/17 02:45:59.000   22.301915259  114.179442671    58.9605   5   4  30.0000  30.0000  30.0000   0.0000  -0.0000  -0.0000   0.00    0.0
2021/05/17 02:46:00.000   22.302001395  114.179619056    16.3409   5   5  30.0000  30.0000  30.0000   0.0000   0.0000  -0.0000   0.00    0.0
2021/05/17 02:46:01.000   22.301921290  114.179643734    29.5660   5   5  30.0000  30.0000  30.0000   0.0000   0.0000  -0.0000   0.00    0.0
2021/05/17 02:46:02.000   22.301868240  114.179627527    11.6039   5   5  30.0000  30.0000  30.0000  -0.0000  -0.0000  -0.0000   0.00    0.0
2021/05/17 02:46:03.000   22.301809206  114.179606461    15.5109   5   6  30.0000  30.0000  30.0000  -0.0000   0.0000  -0.0000   0.00    0.0
2021/05/17 02:46:04.000   22.301730787  114.179522335    17.9139   5   7  30.0000  30.0000  30.0000   0.0000   0.0000   0.0000   0.00    0.0
2021/05/17 02:46:05.000   22.301712414  114.179564826     3.9711   5   5  30.0000  30.0000  30.0000  -0.0000  -0.0000   0.0000   0.00    0.0
2021/05/17 02:46:06.000   22.301671993  114.179529829    10.3404   5   7  30.0000  30.0000  30.0000   0.0000  -0.0000   0.0000   0.00    0.0
2021/05/17 02:46:07.000   22.301625451  114.179498140     6.4806   5   5  30.0000  30.0000  30.0000   0.0000  -0.0000   0.0000   0.00    0.0
2021/05/17 02:46:08.000   22.301597352  114.179434823     3.6620   5   5  30.0000  30.0000  30.0000   0.0000   0.0000  -0.0000   0.00    0.0
2021/05/17 02:46:10.000   22.301634417  114.179204586    23.8119   5   6  30.0000  30.0000  30.0000   0.0000  -0.0000  -0.0000   0.00    0.0
2021/05/17 02:46:11.000   22.301542616  114.179436151    16.1170   5   6  30.0000  30.0000  30.0000  -0.0000   0.0000   0.0000   0.00    0.0
2021/05/17 02:46:13.000   22.301455281  114.178803655    64.6748   5   5  30.0000  30.0000  30.0000  -0.0000  -0.0000  -0.0000   0.00    0.0
2021/05/17 02:46:14.000   22.301406493  114.178767805    60.7587   5   5  30.0000  30.0000  30.0000   0.0000   0.0000  -0.0000   0.00    0.0
