     2.10           OBSERVATION DATA    M (MIXED)           RINEX VERSION / TYPE
RTKCONV 2.4.2                           20220421 192742 UTC PGM / RUN BY / DATE 
log: C:\Users\shubh\Downloads\1_lightUrban_tsimShaTsuiEast  COMMENT             
format: RINEX                                               COMMENT             
Geo++                                                       MARKER NAME         
                                                            MARKER NUMBER       
                                                            OBSERVER / AGENCY   
unknown             Google              Pixel 4             REC # / TYPE / VERS 
unknown             Pixel 4                                 ANT # / TYPE        
 -2419229.7018  5385470.4249  2405344.1980                  APPROX POSITION XYZ 
        0.0000        0.0000        0.0000                  ANTENNA: DELTA H/E/N
     1     1                                                WAVELENGTH FACT L1/2
    10    C1    L1    D1    S1    P1    C2    L2    D2    S2# / TYPES OF OBSERV 
          P2                                                # / TYPES OF OBSERV 
  2021     5    17     2    33   13.4446064     GPS         TIME OF FIRST OBS   
  2021     5    17     2    46   18.4446844     GPS         TIME OF LAST OBS    
                                                            END OF HEADER       
 21  5 17  2 33 13.4446064  0  5G 1G 8G 9G16G21
  21535527.222                        3331.250          24.250                  
                                                                                
  21048989.245                       -1685.950          17.000                  
                                                                                
  22982617.022   120774427.177       -1775.092          34.000                  
                                                                                
  24268996.480                       -1485.850          20.500                  
                                                                                
  20575739.269   108126203.745        1076.232          27.250                  
                                                                                
 21  5 17  2 33 14.4446066  0  4G 1G 9G16G21
  21534958.735                        3329.950          25.250                  
                                                                                
  22983005.772   120776517.031       -1774.417          33.750                  
                                                                                
  24269355.551                       -1486.000          22.250                  
                                                                                
  20575605.481   108125442.333        1076.461          27.500                  
                                                                                
 21  5 17  2 33 15.4446067  0  4G 1G 9G16G21
  21534341.097                        3329.700          25.250                  
                                                                                
  22983368.457   120778449.741       -1774.331          33.500                  
                                                                                
  24269687.656                       -1484.650          22.750                  
                                                                                
  20575418.046   108124523.5951       1076.386          26.500                  
                                                                                
 21  5 17  2 33 16.4446069  0  4G 1G 9G16G21
  21533768.084                        3327.550          25.250                  
                                                                                
  22983776.364   120780541.344       -1776.566          33.500                  
                                                                                
  24269972.649                       -1489.300          24.000                  
                                                                                
  20575268.939   108123764.2091       1074.508          26.500                  
                                                                                
 21  5 17  2 33 17.4446071  0  4G 1G 9G16G21
  21533198.046   113157718.9091       3326.633          25.750                  
                                                                                
  22984165.062   120782632.926       -1776.969          33.500                  
                                                                                
  24270334.665                       -1489.050          24.500                  
                                                                                
  20575146.791   108123005.7141       1072.962          26.500                  
                                                                                
 21  5 17  2 33 18.4446072  0  4G 1G 9G16G21
  21532582.626                        3329.450          24.750                  
                                                                                
  22984542.855   120784565.096       -1774.709          34.000                  
                                                                                
  24270680.680                       -1483.550          23.750                  
                                                                                
  20574947.783   108122088.1351       1074.871          26.750                  
                                                                                
 21  5 17  2 33 19.4446074  0  5G 1G 9G16G21G27
  21532022.599   113151542.2371       3328.737          27.250                  
                                                                                
  22984940.365   120786655.576       -1774.557          34.500                  
                                                                                
  24271033.221                       -1480.150          24.750                  
                                                                                
  20574820.057   108121329.2411       1074.589          26.000                  
                                                                                
  23194905.709                       -2829.300          15.250                  
                                                                                
 21  5 17  2 33 20.4446075  0  5G 1G 8G 9G16G21
  21531418.344                        3326.400          23.750                  
                                                                                
  21051528.564                       -1678.700          15.500                  
                                                                                
  22985314.332   120788588.373       -1777.174          34.000                  
                                                                                
  24271333.140                       -1485.450          25.250                  
                                                                                
  20574643.305                        1069.450          24.750                  
                                                                                
 21  5 17  2 33 21.4446076  0  5G 1G 8G 9G16G21
  21530804.765                        3324.300          25.250                  
                                                                                
  21051967.257                       -1673.150          22.250                  
                                                                                
  22985682.574   120790523.569       -1775.305          34.000                  
                                                                                
  24271614.741                       -1487.950          24.000                  
                                                                                
  20574462.627   108119530.7861       1069.086          28.000                  
                                                                                
 21  5 17  2 33 22.4446078  0  6G 1G 4G 9G16G21G27
  21530244.948   113142199.8561       3328.720          26.000                  
                                                                                
  23659996.352                       -2634.350          17.500                  
                                                                                
  22986071.900   120792610.096       -1768.757          33.500                  
                                                                                
  24271998.072                       -1487.100          21.000                  
                                                                                
  20574325.217   108118775.9331       1069.739          29.500                  
                                                                                
  23196694.989                       -2824.400          19.500                  
                                                                                
 21  5 17  2 33 23.4446079  0  5G 1G 8G 9G21G27
  21529653.891   113139026.3071       3331.945          27.000                  
                                                                                
  21052670.600                       -1669.750          20.500                  
                                                                                
  22986435.083   120794532.251       -1762.616          31.250                  
                                                                                
  20574145.176                        1069.300          25.250                  
                                                                                
  23197286.613                       -2818.000          21.500                  
                                                                                
 21  5 17  2 33 24.4446081  0  6G 1G 8G 9G16G21G27
  21529064.760                        3329.950          24.500                  
                                                                                
  21053046.801                       -1664.500          21.750                  
                                                                                
  22986833.468   120796609.091       -1758.913          32.000                  
                                                                                
  24272629.530                       -1497.900          22.000                  
                                                                                
  20573999.738                        1070.200          25.000                  
                                                                                
  23197911.642                       -2812.750          21.750                  
                                                                                
 21  5 17  2 33 25.4446083  0  4G 1G 9G16G21
  21528514.862                        3332.000          22.250                  
                                                                                
  22987226.117   120798683.835       -1758.822          33.000                  
                                                                                
  24272926.546                       -1492.550          23.750                  
                                                                                
  20573863.254                        1074.650          23.250                  
                                                                                
 21  5 17  2 33 26.4446084  0  5G 1G 8G 9G16G21
  21527892.857                        3334.600          25.000                  
                                                                                
  21053797.466                       -1664.900          21.500                  
                                                                                
  22987594.326   120800599.5851      -1759.735          28.750                  
                                                                                
  24273275.868                       -1481.000          23.750                  
                                                                                
  20573705.927                        1074.500          21.500                  
                                                                                
 21  5 17  2 33 27.4446086  0  7G 1G 7G 8G 9G16G21G27
  21527327.181                        3327.250          23.750                  
                                                                                
  21054941.507                        2446.800          27.000                  
                                                                                
  21054182.432                       -1673.750          23.750                  
                                                                                
  22988078.824                       -1767.750          24.250                  
                                                                                
  24273690.513                       -1476.750          22.250                  
                                                                                
  20573543.771                        1074.800          22.500                  
                                                                                
  23199645.359                       -2822.150          19.750                  
                                                                                
 21  5 17  2 33 28.4446087  0  8G 1G 7G 8G 9G16G21G27G30
  21526725.421   113123705.1721       3333.914          29.500                  
                                                                                
  21054503.134   110642160.6071       2446.321          34.750                  
                                                                                
  21054518.423                       -1673.750          23.250                  
                                                                                
  22988397.726   120804844.6421      -1766.185          27.750                  
                                                                                
  24273935.367                       -1484.750          25.000                  
                                                                                
  20573360.522   108113738.5431       1074.895          32.000                  
                                                                                
  23200231.077                       -2819.750          23.000                  
                                                                                
  24114345.949                        3586.400          18.750                  
                                                                                
 21  5 17  2 33 29.4446089  0  8G 1G 4G 7G 8G 9G16G21G27
  21526143.517   113120683.3991       3338.683          35.000                  
                                                                                
  23663845.417                       -2618.400          17.000                  
                                                                                
  21054116.395   110640023.8671       2454.619          30.500                  
                                                                                
  21054911.144   110644304.5791      -1670.619          27.500                  
                                                                                
  22988758.370   120806932.9041      -1780.278          30.000                  
                                                                                
  24274276.524                       -1471.400          23.250                  
                                                                                
  20573217.514   108112976.634        1078.626          39.500                  
                                                                                
  23200797.678                       -2821.650          24.750                  
                                                                                
 21  5 17  2 33 30.4446090  0  7G 1G 4G 7G 8G21G27G30
  21525521.453   113117504.307        3337.097          35.000                  
                                                                                
  23664416.227                       -2615.000          21.250                  
                                                                                
  21053664.912                        2438.550          29.750                  
                                                                                
  21055251.114   110646134.9411      -1674.123          32.750                  
                                                                                
  20573043.639   108112058.289        1077.492          34.000                  
                                                                                
  23201356.496                       -2830.050          32.000                  
                                                                                
  24113268.493                        3619.550          25.250                  
                                                                                
 21  5 17  2 33 31.4446092  0  8G 1G 4G 7G 8G 9G21G27G30
  21524947.218   113114478.840        3339.188          33.500                  
                                                                                
  23664970.411                       -2611.750          23.750                  
                                                                                
  21053252.266   110635587.1851       2435.168          30.000                  
                                                                                
  21055616.429                       -1684.750          33.500                  
                                                                                
  22989606.955                       -1767.550          20.500                  
                                                                                
  20572896.909   108111293.573        1077.622          34.250                  
                                                                                
  23201952.352   121927082.5271      -2827.867          33.500                  
                                                                                
  24112679.868   126712987.5021       3626.212          27.500                  
                                                                                
 21  5 17  2 33 32.4446093  0  8G 1G 4G 7G 8G 9G21G27G30
  21524342.826   113111297.332        3342.373          32.750                  
                                                                                
  23665491.739                       -2609.450          24.750                  
                                                                                
  21052819.055   110633312.9501       2432.170          27.500                  
                                                                                
  21055970.773   110649872.4371      -1682.410          33.250                  
                                                                                
  22990009.566                       -1760.350          23.500                  
                                                                                
  20572726.616   108110374.471        1079.092          34.750                  
                                                                                
  23202516.250   121930071.1311      -2842.763          31.000                  
                                                                                
  24111996.330   126709518.511        3629.714          29.250                  
                                                                                
 21  5 17  2 33 33.4446095  0  8G 1G 4G 7G 8G 9G21G27G30
  21523771.399   113108267.6221       3346.494          26.750                  
                                                                                
  23666025.947   124365804.8551      -2605.472          26.000                  
                                                                                
  21052432.000                        2427.350          22.000                  
                                                                                
  21056349.988   110651864.6501      -1674.034          32.500                  
                                                                                
  22990370.793                       -1757.900          23.750                  
                                                                                
  20572578.196   108109610.223        1079.780          38.250                  
                                                                                
  23203117.911                       -2833.100          28.000                  
                                                                                
  24111367.943                        3631.050          23.250                  
                                                                                
 21  5 17  2 33 34.4446096  0  9G 1G 4G 7G 8G 9G16G21G22G27
  21523173.206   113105079.4511       3345.533          29.500                  
                                                                                
  23666512.703   124368566.0551      -2606.474          26.500                  
                                                                                
  21052024.176                        2445.350          21.000                  
                                                                                
  21056697.641                       -1692.400          29.000                  
                                                                                
  22990741.230   120817160.5071      -1759.951          26.250                  
                                                                                
  24276024.947                       -1475.150          18.500                  
                                                                                
  20572399.413   108108686.544        1081.818          39.000                  
                                                                                
  24963253.289                        1866.350          17.000                  
                                                                                
  23203696.105   121936245.0671      -2831.200          29.500                  
                                                                                
 21  5 17  2 33 35.4446098  0  8G 1G 4G 7G 8G 9G21G22G27
  21522607.787                        3343.900          23.000                  
                                                                                
  23667104.783                       -2604.700          23.750                  
                                                                                
  21051602.657   110626918.1001       2432.765          26.500                  
                                                                                
  21057085.561                       -1690.400          25.500                  
                                                                                
  22991165.126   120819234.0921      -1755.290          27.500                  
                                                                                
  20572257.001   108107920.925        1082.296          38.250                  
                                                                                
  24962952.586                        1867.550          17.750                  
                                                                                
  23204310.968   121939391.8561      -2830.641          28.250                  
                                                                                
 21  5 17  2 33 36.4446099  0  9G 1G 4G 7G 8G 9G21G22G27G30
  21522004.437                        3339.500          22.000                  
                                                                                
  23667683.514                       -2612.850          25.000                  
                                                                                
  21051162.994   110624647.866        2423.299          29.750                  
                                                                                
  21057466.730                       -1677.450          30.250                  
                                                                                
  22991483.937                       -1762.300          25.500                  
                                                                                
  20572080.855   108106995.229        1082.755          36.250                  
                                                                                
  24962615.751                        1871.750          19.000                  
                                                                                
  23204851.926   121942382.7791      -2836.812          28.750                  
                                                                                
  24109247.226                        3560.200          23.500                  
                                                                                
 21  5 17  2 33 37.4446101  0 10G 1G 4G 7G 8G 9G16G21G22G27G30
  21521406.759                        3344.750          24.250                  
                                                                                
  23668140.806                       -2655.000          22.000                  
                                                                                
  21050758.082   110622539.690        2421.574          30.250                  
                                                                                
  21057811.299                       -1699.450          27.750                  
                                                                                
  22991866.881                       -1780.300          30.000                  
                                                                                
  24277001.001                       -1484.750          19.250                  
                                                                                
  20571934.365   108106226.318        1083.512          36.250                  
                                                                                
  24962309.771                        1871.800          19.500                  
                                                                                
  23205533.462                       -2782.500          27.750                  
                                                                                
  24108765.568                        3639.250          23.000                  
                                                                                
 21  5 17  2 33 38.4446102  0  8G 1G 7G 8G 9G21G22G27G30
  21520808.222   113092609.9161       3351.324          27.000                  
                                                                                
  21050325.030   110620275.5261       2420.347          30.250                  
                                                                                
  21058172.398                       -1692.550          25.250                  
                                                                                
  22992232.176   120824995.1801      -1781.803          30.500                  
                                                                                
  20571759.434   108105299.358        1084.662          36.000                  
                                                                                
  24961989.741                        1871.550          19.500                  
                                                                                
  23206125.701                       -2795.300          23.750                  
                                                                                
  24107970.966                        3552.500          21.750                  
                                                                                
 21  5 17  2 33 39.4446103  0  7G 1G 7G 8G 9G21G22G30
  21520202.207                        3342.650          27.000                  
                                                                                
  21049900.390   110618014.2001       2421.859          29.250                  
                                                                                
  21058535.012                       -1688.050          23.750                  
                                                                                
  22992655.049                       -1769.350          28.500                  
                                                                                
  20571585.421   108104372.934        1086.950          36.000                  
                                                                                
  24961663.733                        1872.000          19.500                  
                                                                                
  24107339.169                        3598.750          21.250                  
                                                                                
 21  5 17  2 33 40.4446105  0  8G 1G 7G 8G 9G21G22G27G30
  21519625.224                        3342.350          27.750                  
                                                                                
  21049507.480   110615908.066        2418.555          31.250                  
                                                                                
  21058910.770                       -1704.800          35.000                  
                                                                                
  22993044.897                       -1754.450          33.250                  
                                                                                
  20571437.741   108103601.807        1083.307          37.250                  
                                                                                
  24961369.454                        1872.700          19.750                  
                                                                                
  23207282.284                       -2794.050          20.750                  
                                                                                
  24106733.407                        3549.000          23.000                  
                                                                                
 21  5 17  2 33 41.4446106  0  9G 1G 4G 7G 8G 9G16G21G27G30
  21519065.187                        3315.950          25.500                  
                                                                                
  23670358.478                       -2603.350          23.000                  
                                                                                
  21049064.962   110613646.284        2417.568          29.750                  
                                                                                
  21059269.897   110667210.0311      -1704.309          33.250                  
                                                                                
  22993395.929   120831110.7061      -1748.003          34.500                  
                                                                                
  24278203.875                       -1483.650          17.500                  
                                                                                
  20571258.740   108102675.626        1081.260          37.000                  
                                                                                
  23207851.265   121958080.9051      -2796.976          31.000                  
                                                                                
  24106093.625                        3549.800          21.000                  
                                                                                
 21  5 17  2 33 42.4446108  0 10G 1G 4G 7G 8G 9G16G21G22G27G30
  21518438.396                        3330.250          27.000                  
                                                                                
  23670937.452                       -2603.200          22.250                  
                                                                                
  21048669.910   110611546.182        2418.483          30.250                  
                                                                                
  21059660.002   110669231.6121      -1703.295          30.000                  
                                                                                
  22993834.600                       -1757.350          26.000                  
                                                                                
  24278532.223                       -1488.050          21.000                  
                                                                                
  20571115.814   108101911.8441       1080.815          35.000                  
                                                                                
  24960785.209                        1884.200          19.750                  
                                                                                
  23208436.534   121961196.9261      -2799.419          26.750                  
                                                                                
  24105573.859                        3627.750          23.000                  
                                                                                
 21  5 17  2 33 43.4446109  0  7G 1G 4G 7G 8G 9G21G27
  21517833.507                        3342.850          27.250                  
                                                                                
  23671448.091                       -2588.900          23.000                  
                                                                                
  21048236.502   110609283.853        2419.135          31.250                  
                                                                                
  21059993.763   110671090.7561      -1702.978          28.500                  
                                                                                
  22994202.538                       -1747.250          32.250                  
                                                                                
  20570937.829   108100987.969        1079.941          36.750                  
                                                                                
  23209027.218                       -2858.350          29.750                  
                                                                                
 21  5 17  2 33 44.4446111  0  9G 1G 4G 7G 8G 9G16G21G22G27
  21517238.505   113073851.2771       3349.211          26.750                  
                                                                                
  23671980.309                       -2641.200          22.250                  
                                                                                
  21047830.670   110607179.4751       2419.965          29.000                  
                                                                                
  21060388.076                       -1676.100          30.500                  
                                                                                
  22994589.656                       -1810.600          27.500                  
                                                                                
  24279191.345                       -1469.250          19.500                  
                                                                                
  20570791.617   108100224.849        1076.659          38.000                  
                                                                                
  24960061.988                        1880.050          20.750                  
                                                                                
  23209624.791                       -2806.100          22.250                  
                                                                                
 21  5 17  2 33 45.4446112  0  8G 1G 4G 7G 8G 9G21G22G27
  21516630.843   113070665.8921       3337.359          27.250                  
                                                                                
  23672469.887                       -2625.750          25.500                  
                                                                                
  21047409.178   110604914.629        2426.158          30.500                  
                                                                                
  21060741.848                       -1684.400          32.250                  
                                                                                
  22994977.305                       -1792.050          24.750                  
                                                                                
  20570621.052   108099308.735        1071.075          37.000                  
                                                                                
  24959724.739   131164238.2071       1871.632          26.000                  
                                                                                
  23210206.105                       -2809.750          23.750                  
                                                                                
 21  5 17  2 33 46.4446114  0  9G 1G 4G 7G 8G 9G21G22G27G30
  21516061.097   113067647.8171       3328.967          31.000                  
                                                                                
  23673029.159   124402607.2951      -2627.422          28.250                  
                                                                                
  21047002.819   110602801.0681       2432.794          30.000                  
                                                                                
  21061120.346                       -1692.900          29.500                  
                                                                                
  22995324.924   120841248.0121      -1789.075          26.000                  
                                                                                
  20570480.909   108098556.875        1064.182          36.500                  
                                                                                
  24959414.913                        1857.850          24.500                  
                                                                                
  23210813.644   121973648.8681      -2814.329          27.750                  
                                                                                
  24102984.607                        3571.750          19.500                  
                                                                                
 21  5 17  2 33 47.4446115  0  9G 1G 4G 7G 8G 9G16G21G22G27
  21515474.021                        3318.050          25.250                  
                                                                                
  23673566.005   124405393.6061      -2630.324          27.250                  
                                                                                
  21046564.740   110600521.735        2439.593          30.250                  
                                                                                
  21061492.906   110678892.0121      -1689.926          28.750                  
                                                                                
  22995698.083   120843189.6501      -1782.965          25.750                  
                                                                                
  24280213.732                       -1485.450          20.750                  
                                                                                
  20570303.049   108097653.952        1056.981          37.500                  
                                                                                
  24959120.734                        1849.600          24.000                  
                                                                                
  23211372.675   121976628.6321      -2826.714          26.000                  
                                                                                
 21  5 17  2 33 48.4446117  0  7G 4G 7G 8G16G21G27G30
  23674094.381   124408340.833       -2632.092          28.500                  
                                                                                
  21046166.458   110598392.937        2444.720          29.000                  
                                                                                
  21061863.591   110680893.739       -1686.368          31.500                  
                                                                                
  24280521.760                       -1482.500          21.250                  
                                                                                
  20570158.991   108096913.173        1054.151          37.250                  
                                                                                
  23212023.666   121979770.8301      -2828.099          30.500                  
                                                                                
  24101681.769                        3600.150          19.250                  
                                                                                
 21  5 17  2 33 49.4446118  0  8G 1G 4G 7G 8G16G21G22G27
  21514347.018                        3317.200          21.250                  
                                                                                
  23674637.979   124411131.817       -2634.193          28.750                  
                                                                                
  21045723.139   110596107.0201       2442.621          28.500                  
                                                                                
  21062213.223   110682738.958       -1688.633          32.000                  
                                                                                
  24280835.118                       -1484.800          20.250                  
                                                                                
  20569992.681   108096018.281        1051.383          38.750                  
                                                                                
  24958523.164                        1841.300          22.000                  
                                                                                
  23212596.644   121982757.3941      -2830.079          31.000                  
                                                                                
 21  5 17  2 33 50.4446120  0  6G 4G 7G 8G21G27G30
  23675197.145   124414082.488       -2636.233          30.750                  
                                                                                
  21045315.174   110593980.986        2440.048          31.250                  
                                                                                
  21062588.616   110684744.041       -1690.651          30.500                  
                                                                                
  20569850.032   108095283.753        1048.721          38.250                  
                                                                                
  23213191.785   121985903.615       -2831.653          30.750                  
                                                                                
  24100350.517                        3592.650          23.250                  
                                                                                
 21  5 17  2 33 51.4446121  0 10G 1G 4G 7G 8G 9G16G21G22G27G30
  21513128.723                        3311.650          20.750                  
                                                                                
  23675738.579   124416875.705       -2637.780          30.250                  
                                                                                
  21044893.675   110591698.317        2438.005          29.500                  
                                                                                
  21062952.873   110686592.166       -1692.616          31.000                  
                                                                                
  22997252.485                       -1786.650          17.250                  
                                                                                
  24281472.238                       -1488.550          19.500                  
                                                                                
  20569674.962   108094392.493        1046.524          37.500                  
                                                                                
  24957892.762                        1834.400          19.250                  
                                                                                
  23213763.198   121988892.549       -2833.382          30.000                  
                                                                                
  24099687.985                        3590.250          24.250                  
                                                                                
 21  5 17  2 33 52.4446123  0  7G 4G 7G 8G21G22G27G30
  23676286.237   124419829.864       -2637.331          30.500                  
                                                                                
  21044476.901   110589577.163        2437.687          29.500                  
                                                                                
  21063332.048   110688601.383       -1692.575          30.750                  
                                                                                
  20569539.094   108093662.793        1046.196          37.500                  
                                                                                
  24957589.909                        1832.300          21.750                  
                                                                                
  23214350.129   121992042.4081      -2833.031          29.250                  
                                                                                
  24099096.732                        3591.200          24.250                  
                                                                                
 21  5 17  2 33 53.4446124  0  9G 4G 7G 8G 9G16G21G22G27G30
  23676835.526   124422622.825       -2636.058          30.250                  
                                                                                
  21044066.254   110587295.216        2438.573          30.500                  
                                                                                
  21063681.075   110690449.723       -1691.650          31.000                  
                                                                                
  22998046.641                       -1787.750          19.250                  
                                                                                
  24282120.995                       -1491.700          18.500                  
                                                                                
  20569374.576   108092772.579        1046.716          37.250                  
                                                                                
  24957288.686                        1836.500          23.500                  
                                                                                
  23214919.204   121995031.1581      -2832.143          29.750                  
                                                                                
  24098419.569                        3594.350          23.500                  
                                                                                
 21  5 17  2 33 54.4446126  0  8G 1G 4G 7G 8G21G22G27G30
  21511343.614                        3313.450          19.250                  
                                                                                
  23677404.981   124425574.5891      -2635.524          30.500                  
                                                                                
  21043653.290   110585173.043        2438.447          31.000                  
                                                                                
  21064059.263   110692457.092       -1691.288          31.750                  
                                                                                
  20569235.023   108092041.830        1046.624          38.000                  
                                                                                
  24957041.208                        1836.700          22.000                  
                                                                                
  23215524.335   121998179.1641      -2830.813          28.500                  
                                                                                
  24097855.210                        3594.350          21.750                  
                                                                                
 21  5 17  2 33 55.4446127  0  8G 4G 7G 8G 9G21G22G27G30
  23677936.381   124428368.801       -2636.437          31.000                  
                                                                                
  21043220.257   110582893.183        2437.479          31.000                  
                                                                                
  21064421.580   110694307.191       -1692.370          32.000                  
                                                                                
  22998862.694                       -1787.900          19.250                  
                                                                                
  20569063.110   108091154.161        1045.165          37.750                  
                                                                                
  24956731.090                        1838.850          25.250                  
                                                                                
  23216092.010   122001168.1151      -2831.524          29.000                  
                                                                                
  24097188.639                        3595.750          23.750                  
                                                                                
 21  5 17  2 33 56.4446129  0  6G 4G 7G 8G21G22G27
  23678496.736   124431321.748       -2638.622          31.250                  
                                                                                
  21042813.482   110580772.550        2434.792          31.250                  
                                                                                
  21064805.057   110696316.269       -1694.716          33.500                  
                                                                                
  20568923.449   108090425.864        1042.353          38.250                  
                                                                                
  24956421.447   131146879.7441       1835.794          25.750                  
                                                                                
  23216697.933   122004316.4151      -2834.472          28.500                  
                                                                                
 21  5 17  2 33 57.4446130  0  8G 1G 4G 7G 8G21G22G27G30
  21509603.043                        3304.800          18.500                  
                                                                                
  23679018.487   124434118.678       -2638.299          30.500                  
                                                                                
  21042382.193   110578496.410        2434.494          30.250                  
                                                                                
  21065157.426   110698169.638       -1694.842          34.500                  
                                                                                
  20568761.673   108089542.240        1041.978          38.500                  
                                                                                
  24956136.157                        1837.600          23.750                  
                                                                                
  23217279.043   122007624.1531      -2834.668          28.750                  
                                                                                
  24095884.097                        3589.100          22.750                  
                                                                                
 21  5 17  2 33 58.4446132  0  7G 4G 7G 8G21G22G27G30
  23679575.551   124437070.303       -2638.052          30.250                  
                                                                                
  21041976.622   110576375.421        2434.302          29.250                  
                                                                                
  21065536.412   110700177.941       -1694.907          32.500                  
                                                                                
  20568621.719   108088813.961        1041.598          37.500                  
                                                                                
  24955852.602                        1837.500          25.000                  
                                                                                
  23217887.371   122010771.2721      -2830.918          27.250                  
                                                                                
  24095300.750                        3590.900          22.500                  
                                                                                
 21  5 17  2 33 59.4446133  0  8G 1G 4G 7G 8G21G22G27G30
  21508392.084                        3304.850          20.500                  
                                                                                
  23680114.132   124439865.573       -2638.777          30.500                  
                                                                                
  21041551.671   110574098.547        2433.274          30.250                  
                                                                                
  21065892.420   110702030.167       -1695.826          33.500                  
                                                                                
  20568453.989   108087930.033        1040.189          38.250                  
                                                                                
  24955547.868                        1835.900          22.000                  
                                                                                
  23218434.946   122013759.9041      -2834.205          27.250                  
                                                                                
  24094660.847                        3586.450          22.250                  
                                                                                
 21  5 17  2 34  0.4446134  0  8G 1G 4G 7G 8G21G22G27G30
  21507863.847                        3303.550          21.250                  
                                                                                
  23680643.263   124442662.089       -2639.527          29.500                  
                                                                                
  21041113.971   110571823.350        2432.090          30.500                  
                                                                                
  21066251.568   110703883.895       -1696.861          33.000                  
                                                                                
  20568285.203   108087047.959        1038.844          38.000                  
                                                                                
  24955196.508                        1834.850          25.000                  
                                                                                
  23219034.528   122016751.8651      -2834.329          26.000                  
                                                                                
  24093977.018                        3588.350          21.250                  
                                                                                
 21  5 17  2 34  1.4446136  0  8G 1G 4G 7G 8G21G22G27G30
  21507276.856                        3305.400          23.250                  
