% program   : RTKPOST ver.2.4.2
% inp file  : C:\Users\shubh\Downloads\1_lightUrban_tsimShaTsuiEast_20210517\20210517.light-urban.tste.ublox.m8t.GC.obs
% inp file  : C:\Users\shubh\Downloads\brdc1370.21n.gz
% obs start : 2021/05/17 02:33:13.0 GPST (week2158  95593.0s)
% obs end   : 2021/05/17 02:46:19.0 GPST (week2158  96379.0s)
% pos mode  : single
% elev mask : 15.0 deg
% ionos opt : broadcast
% tropo opt : saastamoinen
% ephemeris : broadcast
%
% (lat/lon/height=WGS84/ellipsoidal,Q=1:fix,2:float,3:sbas,4:dgps,5:single,6:ppp,ns=# of satellites)
%  GPST                  latitude(deg) longitude(deg)  height(m)   Q  ns   sdn(m)   sde(m)   sdu(m)  sdne(m)  sdeu(m)  sdun(m) age(s)  ratio
2021/05/17 02:33:29.000   22.301074581  114.178928890    18.1239   5   7   2.5354   2.9723   6.8643  -1.2127   2.1010  -0.4360   0.00    0.0
2021/05/17 02:33:31.000   22.300949618  114.178984641    18.9972   5   7   2.5360   2.9726   6.8619  -1.2133   2.1005  -0.4350   0.00    0.0
2021/05/17 02:33:32.000   22.300923048  114.179022157    23.0949   5   7   2.5363   2.9728   6.8606  -1.2136   2.1002  -0.4346   0.00    0.0
2021/05/17 02:33:33.000   22.300906172  114.179124628    44.8668   5   7   2.5366   2.9730   6.8594  -1.2139   2.0999  -0.4341   0.00    0.0
2021/05/17 02:33:39.000   22.300570584  114.179426694    13.1252   5   5   3.2821   3.6761   8.3728  -1.9577  -2.3110   1.3237   0.00    0.0
2021/05/17 02:33:40.000   22.300594612  114.179530122   126.2423   5   4   5.4204   8.4774  26.7175   5.3958 -14.1121 -10.3775   0.00    0.0
2021/05/17 02:33:44.000   22.300692279  114.179624594   100.0302   5   4   6.7514   7.9143  32.0677   6.0431 -13.9919 -13.9371   0.00    0.0
2021/05/17 02:34:22.000   22.300146356  114.179892601    -7.0000   5   4   5.2408   8.4042  28.2266   5.6236 -10.6904  -9.8898   0.00    0.0
2021/05/17 02:34:55.000   22.298932613  114.178558512    45.6288   5   8   2.3608   2.6120   5.9313  -0.3199  -0.6249   1.7463   0.00    0.0
2021/05/17 02:34:56.000   22.298889080  114.178543960    24.4916   5   5   3.8405   4.7221  10.9048  -3.1367  -6.0076   5.0695   0.00    0.0
2021/05/17 02:34:57.000   22.298871274  114.178428124    33.8295   5   6   3.0306   3.4548   7.3204  -1.4983  -3.1737   2.5753   0.00    0.0
2021/05/17 02:34:59.000   22.298717049  114.178303011    26.2120   5   5   3.3166   3.7019   8.2135  -2.0091  -2.2604   1.2679   0.00    0.0
2021/05/17 02:35:00.000   22.298719697  114.178055586    44.2288   5   5   3.7647   3.6471   7.9882  -2.2807  -1.5787  -0.5644   0.00    0.0
2021/05/17 02:35:01.000   22.298653779  114.177906400    73.3257   5   4   5.5207  16.2915  46.4231   7.6750 -26.9927 -13.6001   0.00    0.0
2021/05/17 02:35:02.000   22.298634459  114.177944514    28.7699   5   5   3.3758   4.8994  10.1767  -2.9977  -4.9856   3.5964   0.00    0.0
2021/05/17 02:35:03.000   22.298558561  114.177907591    29.7944   5   5   3.3766   4.9007  10.1762  -2.9990  -4.9870   3.5979   0.00    0.0
2021/05/17 02:35:04.000   22.298400328  114.178002010    17.6654   5   6   2.5633   3.4887   8.1457  -1.1954  -1.9706  -0.6757   0.00    0.0
2021/05/17 02:35:05.000   22.298326281  114.178004763     8.0462   5   6   2.5636   3.4890   8.1440  -1.1960  -1.9704  -0.6742   0.00    0.0
2021/05/17 02:35:06.000   22.298346161  114.177812865    29.1904   5   4   4.7518   5.7304  10.8931  -4.3497  -6.0367   5.0966   0.00    0.0
2021/05/17 02:35:07.000   22.298291295  114.177767078    30.6885   5   4   4.7528   5.7320  10.8919  -4.3512  -6.0376   5.0973   0.00    0.0
2021/05/17 02:35:08.000   22.298255450  114.177712203    31.9778   5   4   4.7538   5.7335  10.8907  -4.3527  -6.0385   5.0979   0.00    0.0
2021/05/17 02:35:16.000   22.297781731  114.177276813    -6.8130   5   5   5.0315   7.4146  23.5641   5.1827 -12.1883  -9.8059   0.00    0.0
2021/05/17 02:35:17.000   22.297753292  114.177193749    -6.2174   5   4   5.1858   7.8589  24.1813   4.8472 -12.7569  -9.4337   0.00    0.0
2021/05/17 02:35:20.000   22.297578545  114.176997348   -34.9871   5   4   5.1796   7.8418  24.1108   4.8315 -12.7191  -9.4075   0.00    0.0
2021/05/17 02:35:21.000   22.297576993  114.176906323   -46.8387   5   4   5.1775   7.8362  24.0874   4.8263 -12.7065  -9.3988   0.00    0.0
2021/05/17 02:35:26.000   22.297313487  114.176574913   -52.7120   5   4   5.1672   7.8080  23.9711   4.8005 -12.6440  -9.3555   0.00    0.0
2021/05/17 02:35:27.000   22.297261124  114.176338616   -18.1567   5   4   5.1652   7.8023  23.9479   4.7953 -12.6314  -9.3468   0.00    0.0
2021/05/17 02:35:28.000   22.297108753  114.176331331    23.4577   5   5   3.3294   3.7116   8.1576  -2.0280  -2.2418   1.2470   0.00    0.0
2021/05/17 02:35:29.000   22.297095106  114.176255842    17.8778   5   5   3.3298   3.7119   8.1557  -2.0287  -2.2411   1.2463   0.00    0.0
2021/05/17 02:35:30.000   22.297074510  114.176184989    28.6284   5   5   3.3302   3.7123   8.1538  -2.0293  -2.2405   1.2456   0.00    0.0
2021/05/17 02:35:31.000   22.297137808  114.176097875    30.7792   5   5   3.3307   3.7126   8.1519  -2.0300  -2.2398   1.2448   0.00    0.0
2021/05/17 02:35:32.000   22.297119429  114.176057729    43.8626   5   5   3.3311   3.7129   8.1500  -2.0306  -2.2392   1.2440   0.00    0.0
2021/05/17 02:35:33.000   22.297230889  114.176142970    62.1090   5   4   5.1532   7.7691  23.8099   4.7648 -12.5573  -9.2956   0.00    0.0
2021/05/17 02:35:34.000   22.297232934  114.176134158    93.8957   5   5   3.3320   3.7136   8.1462  -2.0319  -2.2379   1.2425   0.00    0.0
2021/05/17 02:35:38.000   22.297078764  114.176088531   113.0017   5   5   2.8389   3.4974   8.2602  -1.1827  -1.9352   1.2755   0.00    0.0
2021/05/17 02:35:39.000   22.297118556  114.176067853   114.4097   5   6   2.5732   3.4970   8.0861  -1.2172  -1.9641  -0.6208   0.00    0.0
2021/05/17 02:35:40.000   22.297108320  114.176078459   112.4137   5   6   2.5735   3.4972   8.0844  -1.2178  -1.9639  -0.6192   0.00    0.0
2021/05/17 02:35:43.000   22.297093860  114.176071908   122.2198   5   6   2.5743   3.4980   8.0793  -1.2197  -1.9634  -0.6145   0.00    0.0
2021/05/17 02:35:44.000   22.297128591  114.176062183   129.6356   5   6   2.5746   3.4982   8.0776  -1.2203  -1.9632  -0.6129   0.00    0.0
2021/05/17 02:35:45.000   22.297137997  114.176099068   130.4808   5   6   2.5749   3.4984   8.0760  -1.2209  -1.9630  -0.6113   0.00    0.0
2021/05/17 02:35:46.000   22.297163897  114.176116360   131.4690   5   6   2.5752   3.4987   8.0743  -1.2215  -1.9629  -0.6097   0.00    0.0
2021/05/17 02:35:47.000   22.297167774  114.176127617   125.3972   5   6   2.5755   3.4989   8.0726  -1.2221  -1.9627  -0.6081   0.00    0.0
2021/05/17 02:35:48.000   22.297198850  114.176097361   127.8904   5   6   2.5758   3.4992   8.0709  -1.2228  -1.9625  -0.6065   0.00    0.0
2021/05/17 02:35:49.000   22.297193225  114.176121900   129.7369   5   5   4.9320   7.2788  22.9392   5.0345 -11.8701  -9.5225   0.00    0.0
2021/05/17 02:35:50.000   22.297123255  114.176034311   153.5960   5   5   4.9291   7.2747  22.9206   5.0301 -11.8607  -9.5140   0.00    0.0
2021/05/17 02:35:52.000   22.297182115  114.175994316    48.0113   5   4   4.9495   7.9859  27.3355   5.1864  -9.5242  -9.0879   0.00    0.0
2021/05/17 02:35:53.000   22.297184789  114.176000921    51.0392   5   4   4.9465   7.9817  27.3263   5.1819  -9.5115  -9.0793   0.00    0.0
2021/05/17 02:36:13.000   22.297099726  114.175956769   174.4184   5   4   5.0783   7.5591  22.9317   4.5681 -12.0852  -8.9696   0.00    0.0
2021/05/17 02:36:14.000   22.297020054  114.176017328   167.8061   5   5   4.8603   7.1803  22.4823   4.9258 -11.6375  -9.3153   0.00    0.0
2021/05/17 02:36:20.000   22.297095358  114.175949013   160.6513   5   6   2.7639   5.5108  10.9237   2.4179  -6.7067  -2.8633   0.00    0.0
2021/05/17 02:36:21.000   22.297108187  114.175983341   153.9090   5   6   2.7639   5.5109  10.9239   2.4175  -6.7070  -2.8630   0.00    0.0
2021/05/17 02:36:22.000   22.297123384  114.176022307   152.9779   5   6   2.7639   5.5111  10.9241   2.4172  -6.7073  -2.8626   0.00    0.0
2021/05/17 02:36:23.000   22.297097025  114.175997482   166.4743   5   6   2.7639   5.5112  10.9244   2.4168  -6.7075  -2.8623   0.00    0.0
2021/05/17 02:36:24.000   22.297087988  114.176001460   174.0707   5   6   2.7639   5.5113  10.9246   2.4164  -6.7078  -2.8619   0.00    0.0
2021/05/17 02:36:25.000   22.297103794  114.176034200   167.0698   5   6   2.7639   5.5115  10.9248   2.4161  -6.7081  -2.8616   0.00    0.0
2021/05/17 02:36:26.000   22.297111048  114.176078909   163.1315   5   6   2.7640   5.5116  10.9251   2.4157  -6.7084  -2.8612   0.00    0.0
2021/05/17 02:36:27.000   22.297157138  114.176101776   148.0633   5   5   4.8243   7.1305  22.2503   4.8705 -11.5192  -9.2102   0.00    0.0
2021/05/17 02:36:28.000   22.297235691  114.176237406    99.2194   5   5   4.8216   7.1268  22.2327   4.8663 -11.5103  -9.2022   0.00    0.0
2021/05/17 02:36:45.000   22.297780154  114.175589958    54.3570   5   4   8.9852   9.4793  24.1321   8.2616  13.9097  13.8224   0.00    0.0
2021/05/17 02:36:49.000   22.298072780  114.175458441    36.0184   5   4   3.4733  12.8280  12.0729  -3.5173   7.1629   3.5665   0.00    0.0
2021/05/17 02:36:55.000   22.298623827  114.175768775    17.4283   5   4   9.0146   9.4883  24.1366   8.2798  13.9210  13.8496   0.00    0.0
2021/05/17 02:36:56.000   22.298689051  114.175777649    11.0521   5   4   3.0624  12.1293  24.3223   2.4413  16.2137   3.7003   0.00    0.0
2021/05/17 02:36:58.000   22.298799094  114.175745071     3.7602   5   4   9.0234   9.4910  24.1379   8.2852  13.9243  13.8577   0.00    0.0
2021/05/17 02:36:59.000   22.298767838  114.175683471   -24.7979   5   5   3.0642   6.0152  12.0348   2.5167   6.3467   3.8025   0.00    0.0
2021/05/17 02:37:00.000   22.298971251  114.175921063    21.5410   5   4   9.0292   9.4927  24.1387   8.2887  13.9265  13.8631   0.00    0.0
2021/05/17 02:37:01.000   22.299093700  114.176081084    51.5760   5   4   9.0321   9.4935  24.1390   8.2905  13.9275  13.8657   0.00    0.0
2021/05/17 02:37:02.000   22.299089663  114.176117230    44.4572   5   4   9.0351   9.4944  24.1395   8.2923  13.9286  13.8685   0.00    0.0
2021/05/17 02:37:03.000   22.299312646  114.176266178    78.1545   5   4   9.0379   9.4952  24.1398   8.2940  13.9296  13.8710   0.00    0.0
2021/05/17 02:37:04.000   22.299473851  114.176412781   103.1001   5   4   9.0408   9.4960  24.1402   8.2957  13.9306  13.8737   0.00    0.0
2021/05/17 02:37:07.000   22.299680431  114.176653563    96.9751   5   4   9.0496   9.4985  24.1414   8.3010  13.9337  13.8817   0.00    0.0
2021/05/17 02:37:20.000   22.300487565  114.176770932    94.4921   5   4   9.0876   9.5095  24.1458   8.3241  13.9472  13.9163   0.00    0.0
2021/05/17 02:37:22.000   22.300445340  114.176004937    -3.1374   5   4   9.0935   9.5114  24.1465   8.3278  13.9495  13.9217   0.00    0.0
2021/05/17 02:37:24.000   22.300346943  114.176133370    12.5778   5   4   9.0995   9.5130  24.1471   8.3313  13.9515  13.9270   0.00    0.0
2021/05/17 02:37:26.000   22.300474183  114.176250527    52.7245   5   4   9.1053   9.5146  24.1477   8.3348  13.9534  13.9323   0.00    0.0
2021/05/17 02:37:28.000   22.300588843  114.176126197    34.3699   5   4   9.1111   9.5163  24.1483   8.3383  13.9554  13.9375   0.00    0.0
2021/05/17 02:37:30.000   22.300521788  114.176174775    38.2048   5   4   9.1170   9.5179  24.1488   8.3418  13.9574  13.9428   0.00    0.0
2021/05/17 02:37:31.000   22.300527255  114.176137403    36.3803   5   4   9.1200   9.5187  24.1491   8.3436  13.9584  13.9455   0.00    0.0
2021/05/17 02:37:32.000   22.300536632  114.176129228    40.4878   5   4   9.1229   9.5195  24.1494   8.3453  13.9593  13.9481   0.00    0.0
2021/05/17 02:37:33.000   22.300540680  114.176131392    42.5329   5   4   9.1258   9.5203  24.1496   8.3471  13.9603  13.9508   0.00    0.0
2021/05/17 02:37:34.000   22.300500204  114.176071060    26.4131   5   4   9.1288   9.5211  24.1499   8.3489  13.9613  13.9534   0.00    0.0
2021/05/17 02:37:35.000   22.300482368  114.176042555    12.9904   5   4   9.1318   9.5220  24.1502   8.3506  13.9622  13.9561   0.00    0.0
2021/05/17 02:37:36.000   22.300518344  114.176076439    26.6931   5   4   9.1347   9.5227  24.1504   8.3523  13.9632  13.9587   0.00    0.0
2021/05/17 02:37:38.000   22.300515900  114.176060625    14.4046   5   4   9.1405   9.5243  24.1509   8.3558  13.9651  13.9639   0.00    0.0
2021/05/17 02:37:39.000   22.300300935  114.176089384     2.1548   5   4   9.1436   9.5251  24.1512   8.3576  13.9660  13.9667   0.00    0.0
2021/05/17 02:37:43.999   22.300551769  114.176343476    41.3117   5   4   9.1581   9.5289  24.1523   8.3661  13.9705  13.9796   0.00    0.0
2021/05/17 02:37:44.999   22.300560871  114.176352841    26.9186   5   4   9.1610   9.5296  24.1525   8.3678  13.9715  13.9822   0.00    0.0
2021/05/17 02:37:48.000   22.300748465  114.176462553    42.9661   5   4   9.1697   9.5319  24.1531   8.3729  13.9741  13.9899   0.00    0.0
2021/05/17 02:37:49.000   22.300836538  114.176476379    51.3860   5   4   9.1726   9.5326  24.1533   8.3746  13.9750  13.9924   0.00    0.0
2021/05/17 02:37:53.000   22.301254709  114.176967729    86.9273   5   4   9.1840   9.5354  24.1540   8.3811  13.9784  14.0025   0.00    0.0
2021/05/17 02:37:55.000   22.301672797  114.177048857    90.8598   5   4   9.1896   9.5369  24.1544   8.3844  13.9801  14.0075   0.00    0.0
2021/05/17 02:37:56.000   22.301770664  114.177025334    93.1533   5   4   9.1925   9.5376  24.1545   8.3860  13.9810  14.0100   0.00    0.0
2021/05/17 02:37:58.000   22.301584291  114.177163389    81.4755   5   4   9.1984   9.5390  24.1549   8.3894  13.9827  14.0152   0.00    0.0
2021/05/17 02:38:00.000   22.301816834  114.176793720    12.4868   5   5   3.1057   6.0500  12.0478   2.5539   6.4124   3.8947   0.00    0.0
2021/05/17 02:38:01.000   22.302128703  114.176910771    59.2193   5   4   9.2069   9.5413  24.1553   8.3944  13.9853  14.0227   0.00    0.0
2021/05/17 02:38:06.000   22.298457258  114.178222056    26.2457   5   4  38.0630   5.7186  22.3183 -11.5219  -8.2411  28.1393   0.00    0.0
2021/05/17 02:38:07.000   22.298924282  114.178203217    39.5477   5   4  38.0276   5.7165  22.3046 -11.5106  -8.2330  28.1163   0.00    0.0
2021/05/17 02:38:24.000   22.302172008  114.176699611     7.8551   5   6   3.0748   4.0848   7.8672   2.0402   0.7238   3.2387   0.00    0.0
2021/05/17 02:38:25.000   22.302193924  114.176717259    14.0636   5   6   3.0754   4.0846   7.8676   2.0404   0.7279   3.2399   0.00    0.0
2021/05/17 02:38:26.000   22.302194746  114.176695075    11.5924   5   6   3.0760   4.0845   7.8681   2.0406   0.7319   3.2411   0.00    0.0
2021/05/17 02:38:27.000   22.302239457  114.176707964    21.1542   5   6   3.0767   4.0844   7.8686   2.0407   0.7359   3.2423   0.00    0.0
2021/05/17 02:38:28.000   22.302211069  114.176683751    13.5518   5   6   3.0773   4.0842   7.8691   2.0409   0.7399   3.2435   0.00    0.0
2021/05/17 02:38:29.000   22.302256543  114.176693162    20.0419   5   6   3.0779   4.0841   7.8696   2.0411   0.7439   3.2447   0.00    0.0
2021/05/17 02:38:30.000   22.302245454  114.176666138    15.9071   5   6   3.0786   4.0839   7.8701   2.0412   0.7479   3.2459   0.00    0.0
2021/05/17 02:38:31.000   22.302280467  114.176673270    21.1859   5   6   3.0792   4.0838   7.8706   2.0414   0.7518   3.2471   0.00    0.0
2021/05/17 02:38:32.000   22.302287092  114.176737271    19.7291   5   6   3.0798   4.0837   7.8711   2.0416   0.7557   3.2484   0.00    0.0
2021/05/17 02:38:33.000   22.302345148  114.176698594    15.4392   5   6   3.0805   4.0835   7.8716   2.0417   0.7596   3.2496   0.00    0.0
2021/05/17 02:38:34.000   22.302405846  114.176750185    13.2756   5   6   3.0811   4.0834   7.8721   2.0419   0.7635   3.2508   0.00    0.0
2021/05/17 02:38:35.000   22.302471944  114.176830376    13.9551   5   6   3.0817   4.0832   7.8726   2.0421   0.7673   3.2520   0.00    0.0
2021/05/17 02:38:36.000   22.302562109  114.176903505    28.4821   5   6   3.0824   4.0831   7.8730   2.0422   0.7711   3.2531   0.00    0.0
2021/05/17 02:38:37.000   22.302621367  114.176897661    18.8109   5   4   9.3109   9.5656  24.1577   8.4532  14.0132  14.1127   0.00    0.0
2021/05/17 02:38:38.000   22.302676718  114.176959279    22.7604   5   5   3.1322   6.0716  12.0560   2.5772   6.4523   3.9518   0.00    0.0
2021/05/17 02:38:39.000   22.302664877  114.176871455   -20.6093   5   7   2.4279   3.9057   6.3904  -1.3662   3.0700  -1.6522   0.00    0.0
2021/05/17 02:38:45.000   22.303010428  114.177213489     4.1241   5   6   3.0881   4.0818   7.8775   2.0437   0.8047   3.2640   0.00    0.0
2021/05/17 02:38:46.000   22.302980616  114.177264155    -8.4325   5   6   3.0888   4.0817   7.8780   2.0439   0.8084   3.2652   0.00    0.0
2021/05/17 02:38:47.000   22.302969303  114.177317407    -7.9483   5   6   3.0894   4.0816   7.8785   2.0440   0.8120   3.2664   0.00    0.0
2021/05/17 02:38:48.000   22.302923809  114.177345534   -10.3733   5   6   3.0900   4.0814   7.8790   2.0442   0.8156   3.2676   0.00    0.0
2021/05/17 02:38:49.000   22.302888358  114.177440282   -10.3041   5   6   3.0907   4.0813   7.8795   2.0444   0.8191   3.2688   0.00    0.0
2021/05/17 02:38:50.000   22.302868379  114.177560189    -4.8409   5   6   3.0913   4.0811   7.8800   2.0445   0.8227   3.2700   0.00    0.0
2021/05/17 02:38:51.000   22.302467522  114.177696451   -27.9413   5   4  36.5540   5.6294  21.7268 -11.0397  -7.8884  27.1495   0.00    0.0
2021/05/17 02:38:53.000   22.302706737  114.177799772     3.7964   5   5   3.9673   7.3575  10.9282   4.4035  -6.7566  -2.8441   0.00    0.0
2021/05/17 02:38:54.000   22.302713541  114.177995923     4.8942   5   4   6.9891   7.7450  12.0073   5.7739  -5.7918   4.5346   0.00    0.0
2021/05/17 02:38:55.000   22.302617402  114.178054205    12.8131   5   4   6.9895   7.7420  12.0088   5.7717  -5.7890   4.5401   0.00    0.0
2021/05/17 02:38:56.000   22.302558385  114.178177522     8.0590   5   4   6.9900   7.7390  12.0103   5.7695  -5.7862   4.5455   0.00    0.0
2021/05/17 02:38:57.000   22.302642091  114.178323631    12.6550   5   4   6.9905   7.7360  12.0117   5.7672  -5.7834   4.5509   0.00    0.0
2021/05/17 02:39:02.000   22.302479987  114.178853534   -31.8473   5   4   4.4836   7.3404  25.8109   4.4520  -7.1930  -7.5446   0.00    0.0
2021/05/17 02:39:03.000   22.302483967  114.178941754     1.0954   5   4   4.4816   7.3377  25.8039   4.4487  -7.1809  -7.5368   0.00    0.0
2021/05/17 02:39:04.000   22.302429571  114.179033139    15.5565   5   4   4.4796   7.3351  25.7970   4.4454  -7.1688  -7.5290   0.00    0.0
2021/05/17 02:39:07.000   22.302385453  114.179202186    15.9064   5   4   4.3106   6.2174  12.2564   3.5031   7.3706   4.2022   0.00    0.0
2021/05/17 02:39:10.000   22.302385410  114.179538671    -5.8708   5   4   4.4677   7.3192  25.7557   4.4259  -7.0963  -7.4822   0.00    0.0
2021/05/17 02:39:12.000   22.302357891  114.179507063    -5.8094   5   4   8.2527   9.1899  17.3905   7.7488  11.7408  10.2443   0.00    0.0
2021/05/17 02:39:15.000   22.302024912  114.179590623    -2.0948   5   4   3.7062   6.3387  12.8348   3.1865   7.0561   4.9547   0.00    0.0
2021/05/17 02:39:16.000   22.301925504  114.179554897   -14.9966   5   4   3.7072   6.3393  12.8344   3.1873   7.0569   4.9559   0.00    0.0
2021/05/17 02:39:17.000   22.301893158  114.179579460   -19.6131   5   4   3.7081   6.3399  12.8340   3.1880   7.0576   4.9570   0.00    0.0
2021/05/17 02:39:18.000   22.301861251  114.179619763   -13.5018   5   5   3.1609   6.0937  12.0649   2.6017   6.4929   4.0117   0.00    0.0
2021/05/17 02:39:20.000   22.301831960  114.179713496    -1.9516   5   6   3.1109   4.0771   7.8953   2.0496   0.9230   3.3065   0.00    0.0
2021/05/17 02:39:21.000   22.301876913  114.179681161    -2.2676   5   4   7.0024   7.6651  12.0478   5.7148  -5.7164   4.6798   0.00    0.0
2021/05/17 02:39:24.000   22.301850276  114.179634442    25.7012   5   4   7.0040   7.6563  12.0523   5.7083  -5.7081   4.6957   0.00    0.0
2021/05/17 02:39:25.000   22.301748249  114.179550701   -26.0721   5   4   9.4483   9.5918  24.1528   8.5266  14.0415  14.2278   0.00    0.0
2021/05/17 02:39:26.000   22.301776912  114.179594588   -13.2787   5   4   9.4511   9.5923  24.1525   8.5281  14.0420  14.2301   0.00    0.0
2021/05/17 02:39:27.000   22.301821658  114.179684896    -1.3630   5   4   9.4539   9.5927  24.1523   8.5295  14.0425  14.2324   0.00    0.0
2021/05/17 02:39:28.000   22.301845562  114.179709573     6.3220   5   4   9.4567   9.5932  24.1521   8.5310  14.0429  14.2347   0.00    0.0
2021/05/17 02:39:33.000   22.301760351  114.179629484    24.7284   5   5   6.8696   4.8765   8.3267   4.9196   4.3530   5.8857   0.00    0.0
2021/05/17 02:39:34.000   22.301747411  114.179581321    19.7738   5   5   6.8711   4.8768   8.3272   4.9204   4.3537   5.8868   0.00    0.0
2021/05/17 02:39:35.000   22.301668767  114.179527306    -6.0786   5   5   3.9310   3.1931   7.5184  -1.6188   1.6647  -3.0028   0.00    0.0
2021/05/17 02:39:36.000   22.301615751  114.179418601    -0.3162   5   6   3.3952   3.1583   6.4710  -1.8865   2.1400  -1.1981   0.00    0.0
2021/05/17 02:39:37.000   22.301559023  114.179356629     8.5180   5   6   3.3956   3.1586   6.4700  -1.8871   2.1401  -1.1992   0.00    0.0
2021/05/17 02:39:43.000   22.301324366  114.179277958   -95.7751   5   4   4.8640   6.5777  21.2333   3.8256  -9.4262  -8.9722   0.00    0.0
2021/05/17 02:39:44.000   22.301330897  114.179263816  -107.5603   5   4   4.8609   6.5756  21.2136   3.8212  -9.4178  -8.9631   0.00    0.0
2021/05/17 02:39:46.000   22.301205793  114.179273795   -86.3987   5   4   4.8005   6.6956  19.2052   3.6756 -10.0603  -7.5900   0.00    0.0
2021/05/17 02:39:48.000   22.301131888  114.179114944   -42.0994   5   4   4.9645   3.9988   7.8116  -3.1482  -1.5422  -1.6068   0.00    0.0
2021/05/17 02:39:51.000   22.301442747  114.178815608     7.3902   5   4   7.2130   5.2769   9.3449  -5.4610  -4.8554   6.4362   0.00    0.0
2021/05/17 02:39:55.000   22.301171672  114.179040582   -31.1278   5   4   5.0570   6.1923  10.5527  -4.7857  -6.2902   5.2662   0.00    0.0
2021/05/17 02:39:56.000   22.301073136  114.179154577   -52.7756   5   4   4.9672   4.0035   7.8069  -3.1528  -1.5435  -1.6186   0.00    0.0
2021/05/17 02:39:57.000   22.301099075  114.179031375   -24.4364   5   4   4.9676   4.0041   7.8064  -3.1534  -1.5436  -1.6201   0.00    0.0
2021/05/17 02:39:59.000   22.301174480  114.178960430   -12.1868   5   4   5.0614   6.1990  10.5481  -4.7919  -6.2936   5.2684   0.00    0.0
2021/05/17 02:40:00.000   22.301097896  114.178998717   -10.1606   5   5   4.2137   4.0046   7.1019  -3.1134  -1.6448   2.4253   0.00    0.0
2021/05/17 02:40:01.000   22.301099774  114.179014803   -14.2183   5   5   4.2141   4.0052   7.1009  -3.1140  -1.6449   2.4247   0.00    0.0
2021/05/17 02:40:02.000   22.301205697  114.178835195    18.4649   5   4   5.0647   6.2040  10.5446  -4.7966  -6.2961   5.2700   0.00    0.0
2021/05/17 02:40:03.000   22.300967926  114.179090475   -26.9260   5   4   7.2209   5.2882   9.3069  -5.4720  -4.8457   6.4155   0.00    0.0
2021/05/17 02:40:04.000   22.300860860  114.179180838   -40.6325   5   4   7.2215   5.2892   9.3037  -5.4729  -4.8449   6.4138   0.00    0.0
2021/05/17 02:40:06.000   22.301198397  114.178957552    -4.7455   5   6   3.3578   3.8016   7.0955  -2.5451  -1.6851   2.4753   0.00    0.0
2021/05/17 02:40:07.000   22.301195608  114.178965098    -6.5531   5   6   3.3583   3.8022   7.0945  -2.5457  -1.6859   2.4756   0.00    0.0
2021/05/17 02:40:08.000   22.301243149  114.178861311    13.5397   5   5   3.6506   5.3233  10.0118  -3.4368  -5.4004   4.0291   0.00    0.0
2021/05/17 02:40:09.000   22.301233229  114.178922642    -1.0082   5   6   3.3593   3.8033   7.0926  -2.5470  -1.6874   2.4760   0.00    0.0
2021/05/17 02:40:10.000   22.301242643  114.178925026    -2.0277   5   6   3.3598   3.8038   7.0916  -2.5476  -1.6882   2.4762   0.00    0.0
2021/05/17 02:40:11.000   22.301283854  114.178905100    -0.5784   5   6   3.3603   3.8044   7.0907  -2.5482  -1.6889   2.4764   0.00    0.0
2021/05/17 02:40:12.000   22.301328817  114.178869252     2.6460   5   6   3.3608   3.8049   7.0897  -2.5488  -1.6897   2.4766   0.00    0.0
2021/05/17 02:40:13.000   22.301362014  114.178861865     1.4236   5   5   3.8696   3.8118   7.7431  -2.4655  -1.8819   0.4024   0.00    0.0
2021/05/17 02:40:14.000   22.301364801  114.178881524    -4.7780   5   5   3.8699   3.8124   7.7423  -2.4661  -1.8827   0.4039   0.00    0.0
2021/05/17 02:40:15.000   22.301335536  114.178884524    -3.5051   5   5   3.8703   3.8130   7.7415  -2.4668  -1.8834   0.4054   0.00    0.0
2021/05/17 02:40:16.000   22.301288954  114.178914889    -5.0043   5   6   3.0588   3.1209   7.3502  -0.9433   1.3305  -2.3649   0.00    0.0
2021/05/17 02:40:17.000   22.301282914  114.178920703    -5.0438   5   6   3.0591   3.1211   7.3492  -0.9438   1.3303  -2.3649   0.00    0.0
2021/05/17 02:40:18.000   22.301269405  114.178931999    -6.7025   5   6   3.0594   3.1213   7.3482  -0.9444   1.3302  -2.3649   0.00    0.0
2021/05/17 02:40:19.000   22.301234583  114.178949311    -7.4649   5   6   3.0598   3.1215   7.3472  -0.9450   1.3301  -2.3650   0.00    0.0
2021/05/17 02:40:20.000   22.301208565  114.178960256    -7.7789   5   6   3.0601   3.1217   7.3462  -0.9456   1.3299  -2.3650   0.00    0.0
2021/05/17 02:40:21.000   22.301200452  114.178958754    -9.4288   5   6   3.0604   3.1219   7.3453  -0.9462   1.3298  -2.3650   0.00    0.0
2021/05/17 02:40:22.000   22.301164604  114.178975722    -9.3478   5   5   3.9591   3.2067   7.4872  -1.6532   1.6832  -3.0414   0.00    0.0
2021/05/17 02:40:23.000   22.301129788  114.178996335   -10.7010   5   5   3.9597   3.2070   7.4866  -1.6540   1.6836  -3.0422   0.00    0.0
2021/05/17 02:40:24.000   22.301101929  114.179009974   -12.3428   5   5   3.9603   3.2073   7.4859  -1.6547   1.6840  -3.0430   0.00    0.0
2021/05/17 02:40:25.000   22.301073002  114.179018651   -12.4996   5   5   3.9609   3.2076   7.4853  -1.6555   1.6844  -3.0438   0.00    0.0
2021/05/17 02:40:26.000   22.301054345  114.179028739   -13.2841   5   5   3.9615   3.2079   7.4846  -1.6562   1.6848  -3.0446   0.00    0.0
2021/05/17 02:40:27.000   22.301027585  114.179042766   -14.3641   5   5   3.9621   3.2082   7.4840  -1.6569   1.6852  -3.0455   0.00    0.0
2021/05/17 02:40:28.000   22.300989247  114.179059748   -15.5050   5   5   3.9627   3.2084   7.4833  -1.6577   1.6856  -3.0463   0.00    0.0
2021/05/17 02:40:29.000   22.300971570  114.179074518   -16.8070   5   5   3.9633   3.2087   7.4827  -1.6584   1.6860  -3.0471   0.00    0.0
2021/05/17 02:40:30.000   22.301033554  114.179016109   -11.7713   5   4   4.9789   4.0233   7.7875  -3.1724  -1.5483  -1.6682   0.00    0.0
2021/05/17 02:40:32.000   22.301054126  114.179016709   -15.8741   5   5   4.2270   4.0233   7.0719  -3.1323  -1.6493   2.4049   0.00    0.0
2021/05/17 02:41:01.000   22.299803620  114.177806061   431.5956   5   4  15.3879  18.6301  35.9995  16.4985 -25.1958 -23.1978   0.00    0.0
2021/05/17 02:41:02.000   22.301045893  114.179769251    83.6364   5   4   4.0343   9.8062   7.9145  -5.1184  -5.4004   2.3004   0.00    0.0
2021/05/17 02:41:09.000   22.300465368  114.179333147    72.9603   5   4   5.3068   5.1713  14.8171  -2.0921  -5.4801   7.9790   0.00    0.0
2021/05/17 02:41:10.000   22.300379742  114.179377507    71.8018   5   4   5.3077   5.1703  14.8152  -2.0900  -5.4767   7.9793   0.00    0.0
2021/05/17 02:41:33.000   22.299082040  114.178777955    -8.6579   5   5   3.2355   5.8359  11.2323   1.4017  -7.0978  -1.6099   0.00    0.0
2021/05/17 02:41:34.000   22.299021061  114.178714868     1.9700   5   6   2.7708   5.5044  10.8643   2.2805  -6.6971  -2.7109   0.00    0.0
2021/05/17 02:41:35.000   22.298938463  114.178608852    13.3247   5   7   3.0185   2.6846   5.7038  -0.9581  -0.4949   1.7127   0.00    0.0
2021/05/17 02:41:36.000   22.298953605  114.178577714    10.2047   5   7   2.6197   2.9007   6.1392   0.9860  -1.7091   0.8659   0.00    0.0
2021/05/17 02:41:37.000   22.298921511  114.178534239    13.1123   5   7   2.6198   2.9008   6.1388   0.9859  -1.7092   0.8655   0.00    0.0
2021/05/17 02:41:38.000   22.298859940  114.178459884    11.9166   5   7   2.6200   2.9009   6.1384   0.9858  -1.7092   0.8651   0.00    0.0
2021/05/17 02:41:40.000   22.298825724  114.178440766     4.6735   5   5   3.2366   5.8325  11.2228   1.3982  -7.0913  -1.6118   0.00    0.0
2021/05/17 02:41:41.000   22.298764691  114.178298266    18.7420   5   6   3.2214   2.9192   6.1408   0.6044  -1.6895   0.5964   0.00    0.0
2021/05/17 02:41:42.000   22.298701352  114.178247627    16.9261   5   5   4.0079   3.2307   7.4364  -1.7131   1.7178  -3.1061   0.00    0.0
2021/05/17 02:41:43.000   22.298798320  114.178121032    13.1062   5   4   5.0040   4.0666   7.7474  -3.2146  -1.5553  -1.7714   0.00    0.0
2021/05/17 02:41:46.000   22.298677616  114.178063397     9.4881   5   5   3.7480   5.4730   9.9568  -3.5864  -5.5293   4.1571   0.00    0.0
2021/05/17 02:41:47.000   22.298616255  114.178146086    -7.6847   5   6   2.6913   3.5953   7.5061  -1.4482  -1.8930   0.4689   0.00    0.0
2021/05/17 02:41:48.000   22.298642573  114.178078695     4.6648   5   5   3.7501   5.4762   9.9557  -3.5895  -5.5320   4.1597   0.00    0.0
2021/05/17 02:41:49.000   22.298559660  114.178150411    -9.5806   5   4   5.1848   6.3878  10.4232  -4.9656  -6.3849   5.3262   0.00    0.0
2021/05/17 02:41:50.000   22.298564555  114.178130994   -13.5771   5   4   5.1859   6.3895  10.4221  -4.9672  -6.3857   5.3267   0.00    0.0
2021/05/17 02:41:51.000   22.298629608  114.178059514    -7.3731   5   4   5.1870   6.3913  10.4210  -4.9688  -6.3865   5.3272   0.00    0.0
2021/05/17 02:41:52.000   22.298641898  114.178032466    -5.0996   5   4   5.1882   6.3930  10.4198  -4.9704  -6.3873   5.3277   0.00    0.0
2021/05/17 02:41:53.000   22.298671500  114.177999244    -0.2925   5   4   5.1893   6.3948  10.4187  -4.9720  -6.3881   5.3282   0.00    0.0
2021/05/17 02:41:54.000   22.298556084  114.178212111   -41.9006   5   4   4.2015  22.0883  54.1617   5.2272 -34.2026  -9.1021   0.00    0.0
2021/05/17 02:41:55.000   22.298557924  114.178450236  -101.8543   5   4   4.1991  22.1063  54.1847   5.2145 -34.2243  -9.0826   0.00    0.0
2021/05/17 02:41:56.000   22.298528462  114.178540904  -130.7100   5   4   4.1968  22.1241  54.2076   5.2016 -34.2458  -9.0629   0.00    0.0
2021/05/17 02:41:57.000   22.298475936  114.178060206    -9.0751   5   5   4.1472   6.1405  17.4823   3.6837  -9.0648  -7.0399   0.00    0.0
2021/05/17 02:41:58.000   22.298379382  114.177636733   107.2818   5   4   4.1921  22.1584  54.2529   5.1754 -34.2876  -9.0234   0.00    0.0
2021/05/17 02:42:03.000   22.298283963  114.176715290   232.7705   5   4   4.7520   8.2900  16.4732   2.3397 -10.3996  -6.3448   0.00    0.0
2021/05/17 02:42:04.000   22.298207843  114.176738731   227.0874   5   4   4.7515   8.2901  16.4681   2.3359 -10.3976  -6.3418   0.00    0.0
2021/05/17 02:42:09.000   22.297897419  114.177321783   -14.5922   5   5   4.1297   6.1128  17.3439   3.6468  -8.9925  -6.9763   0.00    0.0
2021/05/17 02:42:10.000   22.297792360  114.177272508    -3.9715   5   5   4.1283   6.1106  17.3325   3.6437  -8.9866  -6.9710   0.00    0.0
2021/05/17 02:42:11.000   22.297732836  114.177217820    -6.2872   5   5   4.1268   6.1083  17.3211   3.6407  -8.9806  -6.9657   0.00    0.0
2021/05/17 02:42:14.000   22.297554596  114.176923390    17.7815   5   4   4.6908   6.2757  17.2920   3.1467  -8.9969  -6.8821   0.00    0.0
2021/05/17 02:42:16.000   22.297366273  114.176777639    26.4054   5   6   2.7721   5.4957  10.8366   2.2578  -6.6809  -2.6832   0.00    0.0
2021/05/17 02:42:23.000   22.297365910  114.176399722   111.5500   5   4   7.1430   7.1643  12.3727   5.3444  -5.2280   5.5977   0.00    0.0
2021/05/17 02:42:24.000   22.297270417  114.176309950    84.1162   5   4   7.1440   7.1618  12.3748   5.3425  -5.2255   5.6025   0.00    0.0
2021/05/17 02:42:25.000   22.297060060  114.176223846    39.7977   5   4   4.6846   6.2487  17.1661   3.1090  -8.9261  -6.8357   0.00    0.0
2021/05/17 02:42:27.000   22.297008718  114.176148385    64.4804   5   4   4.6836   6.2439  17.1435   3.1022  -8.9133  -6.8273   0.00    0.0
2021/05/17 02:42:28.000   22.296999246  114.176128796    61.5684   5   4   4.6830   6.2415  17.1322   3.0987  -8.9069  -6.8231   0.00    0.0
2021/05/17 02:42:29.000   22.296990979  114.176101283    44.0096   5   4   4.6825   6.2391  17.1209   3.0953  -8.9006  -6.8190   0.00    0.0
2021/05/17 02:42:30.000   22.297030840  114.176136638    29.2074   5   4   4.6820   6.2368  17.1096   3.0920  -8.8943  -6.8149   0.00    0.0
2021/05/17 02:42:31.000   22.297029785  114.176161008    21.7047   5   4   4.6815   6.2344  17.0984   3.0886  -8.8879  -6.8107   0.00    0.0
2021/05/17 02:42:32.000   22.297082776  114.176168230    14.4113   5   4   4.6810   6.2320  17.0871   3.0852  -8.8816  -6.8066   0.00    0.0
2021/05/17 02:42:33.000   22.297101553  114.176161918     9.4806   5   4   4.6804   6.2297  17.0759   3.0818  -8.8753  -6.8025   0.00    0.0
2021/05/17 02:42:34.000   22.297077028  114.176167461     2.1635   5   4   4.6799   6.2273  17.0647   3.0784  -8.8690  -6.7983   0.00    0.0
2021/05/17 02:42:38.000   22.297100561  114.176112485    42.8133   5   5   4.0893   6.0483  17.0179   3.5594  -8.8221  -6.8264   0.00    0.0
2021/05/17 02:42:39.000   22.297077234  114.176110004    51.0510   5   5   4.0880   6.0461  17.0069   3.5564  -8.8163  -6.8213   0.00    0.0
2021/05/17 02:42:40.000   22.297092340  114.176128305    45.8113   5   5   4.0866   6.0440  16.9959   3.5534  -8.8106  -6.8163   0.00    0.0
2021/05/17 02:42:42.000   22.297098396  114.176096788    46.8089   5   5   4.0840   6.0397  16.9739   3.5475  -8.7991  -6.8062   0.00    0.0
2021/05/17 02:42:43.000   22.297113944  114.176084004    39.6324   5   5   4.0826   6.0375  16.9629   3.5446  -8.7933  -6.8011   0.00    0.0
2021/05/17 02:43:23.000   22.297738852  114.175070179    19.2905   5   4   4.1399  10.1368   7.7699  -5.3177  -5.4220   2.3132   0.00    0.0
2021/05/17 02:43:24.000   22.297797657  114.175158404    18.6129   5   4   3.8512  13.5591  12.1501  -3.9123   7.4083   4.1913   0.00    0.0
2021/05/17 02:43:25.000   22.298732365  114.177443635   282.9864   5   4   7.3645   5.0386  13.8665   1.9056  -3.5754   9.0011   0.00    0.0
2021/05/17 02:43:27.000   22.298994859  114.177665365   302.5440   5   4   7.3697   5.0377  13.8705   1.9086  -3.5709   9.0066   0.00    0.0
2021/05/17 02:43:28.000   22.298169122  114.175243683    22.6771   5   4   3.8554  13.5673  12.1511  -3.9170   7.4115   4.1970   0.00    0.0
2021/05/17 02:43:29.000   22.298224116  114.175302841    16.4876   5   4   3.8565  13.5694  12.1513  -3.9181   7.4122   4.1984   0.00    0.0
2021/05/17 02:43:35.000   22.298837595  114.175609414     6.0524   5   4  10.1233   9.6325  23.9719   8.8171  14.0443  14.7206   0.00    0.0
2021/05/17 02:43:37.000   22.298842130  114.175747575    -6.2340   5   5   3.3606   6.2343  12.1272   2.7599   6.7387   4.3868   0.00    0.0
2021/05/17 02:43:41.000   22.299201695  114.175259392   -18.8045   5   4   3.8691  13.5940  12.1544  -3.9322   7.4218   4.2154   0.00    0.0
2021/05/17 02:43:42.000   22.299406012  114.175931666    -2.5515   5   4  10.1408   9.6310  23.9634   8.8226  14.0407  14.7315   0.00    0.0
2021/05/17 02:44:05.000   22.300406041  114.176185038    68.8145   5   4  10.1984   9.6255  23.9338   8.8399  14.0277  14.7668   0.00    0.0
2021/05/17 02:44:06.000   22.300416255  114.176191522    66.4878   5   4  10.2009   9.6252  23.9325   8.8407  14.0271  14.7684   0.00    0.0
2021/05/17 02:44:07.000   22.300295553  114.176066608    31.7411   5   5   3.3851   6.2498  12.1352   2.7774   6.7649   4.4287   0.00    0.0
2021/05/17 02:44:08.000   22.300245781  114.176114533    26.4149   5   6   2.5353   4.6681   6.6293  -1.2690   1.8780  -1.7850   0.00    0.0
2021/05/17 02:44:09.000   22.300206521  114.176098960    24.2836   5   6   2.5356   4.6684   6.6282  -1.2696   1.8788  -1.7848   0.00    0.0
2021/05/17 02:44:10.000   22.300226531  114.176097062    24.4970   5   6   2.5360   4.6687   6.6272  -1.2702   1.8797  -1.7845   0.00    0.0
2021/05/17 02:44:11.000   22.300292137  114.176036575    18.6447   5   6   2.5363   4.6690   6.6261  -1.2708   1.8805  -1.7843   0.00    0.0
2021/05/17 02:44:12.000   22.300293016  114.176061149    25.5736   5   6   2.5366   4.6693   6.6251  -1.2714   1.8813  -1.7840   0.00    0.0
2021/05/17 02:44:13.000   22.300317422  114.176039407    24.3205   5   6   2.5369   4.6696   6.6240  -1.2720   1.8821  -1.7837   0.00    0.0
2021/05/17 02:44:14.000   22.300365363  114.175977744    14.4642   5   6   2.5372   4.6699   6.6230  -1.2726   1.8829  -1.7835   0.00    0.0
2021/05/17 02:44:15.000   22.300517470  114.176098578   -24.2739   5   5   4.0356   6.5777  11.6760   3.5937  -6.4028  -5.7755   0.00    0.0
2021/05/17 02:44:16.000   22.300543872  114.176177127   -38.2744   5   4   4.0486   6.7630  24.0840   3.6645  -2.7666  -5.1221   0.00    0.0
2021/05/17 02:44:17.000   22.300583302  114.176263952   -30.4820   5   4   4.0477   6.7619  24.0798   3.6627  -2.7464  -5.1141   0.00    0.0
2021/05/17 02:44:20.000   22.300789905  114.176402399   -76.1886   5   4   4.0453   6.7586  24.0672   3.6573  -2.6847  -5.0903   0.00    0.0
2021/05/17 02:44:21.000   22.300851079  114.176454352   -52.6502   5   4   4.0445   6.7575  24.0629   3.6555  -2.6638  -5.0823   0.00    0.0
2021/05/17 02:44:22.000   22.300925852  114.176543271   -45.5131   5   4   4.0437   6.7563  24.0587   3.6537  -2.6429  -5.0744   0.00    0.0
2021/05/17 02:44:23.000   22.300991382  114.176632356   -24.1194   5   4   4.0429   6.7552  24.0545   3.6519  -2.6219  -5.0664   0.00    0.0
2021/05/17 02:44:24.000   22.301058902  114.176677256   -61.9653   5   4   4.0421   6.7541  24.0503   3.6502  -2.6007  -5.0585   0.00    0.0
2021/05/17 02:44:25.000   22.301167409  114.176758550   -60.7903   5   4   4.0413   6.7530  24.0462   3.6484  -2.5793  -5.0505   0.00    0.0
2021/05/17 02:44:30.000   22.301601943  114.176505113     2.5573   5   4   3.9215  13.6961  12.1673  -3.9909   7.4615   4.2844   0.00    0.0
2021/05/17 02:44:35.000   22.301992104  114.176743531    22.0161   5   4   4.0335   6.7422  24.0046   3.6309  -2.3549  -4.9707   0.00    0.0
2021/05/17 02:44:49.000   22.302140180  114.176551604     0.0589   5   4  10.3068   9.6111  23.8720   8.8692  13.9974  14.8305   0.00    0.0
2021/05/17 02:44:50.000   22.302071511  114.176477354   -24.7295   5   4  10.3093   9.6108  23.8706   8.8699  13.9966  14.8320   0.00    0.0
2021/05/17 02:44:51.000   22.302043415  114.176436726   -31.0646   5   4  10.3118   9.6104  23.8691   8.8705  13.9959  14.8334   0.00    0.0
2021/05/17 02:44:52.000   22.302064458  114.176457484   -19.7736   5   4  10.3142   9.6100  23.8676   8.8711  13.9951  14.8348   0.00    0.0
2021/05/17 02:44:53.000   22.302116660  114.176516731    -7.5170   5   4  10.3167   9.6096  23.8661   8.8717  13.9943  14.8361   0.00    0.0
2021/05/17 02:44:54.000   22.302152551  114.176588338     0.8717   5   4  10.3191   9.6092  23.8645   8.8723  13.9935  14.8375   0.00    0.0
2021/05/17 02:44:55.000   22.302126976  114.176554467    -5.6412   5   4  10.3216   9.6088  23.8631   8.8729  13.9927  14.8389   0.00    0.0
2021/05/17 02:44:56.000   22.302097853  114.176538049   -10.9323   5   4  10.3240   9.6084  23.8615   8.8735  13.9919  14.8403   0.00    0.0
2021/05/17 02:44:57.000   22.302126625  114.176601857    -3.3796   5   4  10.3265   9.6080  23.8600   8.8741  13.9911  14.8417   0.00    0.0
2021/05/17 02:44:58.000   22.302148740  114.176677590     3.8454   5   4  10.3289   9.6075  23.8585   8.8747  13.9902  14.8431   0.00    0.0
2021/05/17 02:44:59.000   22.302068662  114.176617589   -13.4948   5   4  10.3314   9.6072  23.8570   8.8753  13.9895  14.8445   0.00    0.0
2021/05/17 02:45:00.000   22.302054561  114.176603172   -23.0963   5   4  10.3338   9.6068  23.8555   8.8759  13.9887  14.8459   0.00    0.0
2021/05/17 02:45:01.000   22.302231098  114.176806550    25.4511   5   4  10.3362   9.6063  23.8539   8.8764  13.9878  14.8471   0.00    0.0
2021/05/17 02:45:02.000   22.302203310  114.176721684    11.3131   5   4  10.3386   9.6059  23.8524   8.8770  13.9870  14.8485   0.00    0.0
2021/05/17 02:45:03.000   22.302164018  114.176659052     2.4740   5   4  10.3411   9.6055  23.8509   8.8776  13.9862  14.8499   0.00    0.0
2021/05/17 02:45:04.000   22.302139017  114.176589934   -13.9706   5   5   3.4327   6.2788  12.1509   2.8106   6.8135   4.5080   0.00    0.0
2021/05/17 02:45:05.000   22.302203928  114.176826960    21.2416   5   6   3.3601   4.0361   8.0977   2.1222   1.6893   3.7327   0.00    0.0
2021/05/17 02:45:06.000   22.302251663  114.176730939     9.4836   5   6   3.3609   4.0360   8.0984   2.1224   1.6911   3.7340   0.00    0.0
2021/05/17 02:45:07.000   22.302312299  114.176763558     8.5157   5   6   3.3617   4.0359   8.0991   2.1227   1.6928   3.7353   0.00    0.0
2021/05/17 02:45:08.000   22.302448959  114.176839142    24.8864   5   4  10.3531   9.6033  23.8431   8.8803  13.9819  14.8566   0.00    0.0
2021/05/17 02:45:09.000   22.302394664  114.176757002    -1.9747   5   5   3.4370   6.2813  12.1523   2.8134   6.8177   4.5149   0.00    0.0
2021/05/17 02:45:10.000   22.302594419  114.176949137    30.8697   5   4  10.3579   9.6024  23.8400   8.8814  13.9802  14.8592   0.00    0.0
2021/05/17 02:45:11.000   22.302543750  114.176854037    -1.1600   5   5   3.4386   6.2823  12.1529   2.8146   6.8193   4.5177   0.00    0.0
2021/05/17 02:45:12.000   22.302649445  114.176934905     9.9639   5   5   3.4395   6.2828  12.1532   2.8151   6.8201   4.5190   0.00    0.0
2021/05/17 02:45:13.000   22.302690250  114.176977171     7.4138   5   5   3.4403   6.2833  12.1535   2.8157   6.8210   4.5204   0.00    0.0
2021/05/17 02:45:14.000   22.302776653  114.177014277     3.6595   5   6   3.3672   4.0351   8.1038   2.1243   1.7046   3.7441   0.00    0.0
2021/05/17 02:45:15.000   22.302863294  114.177040965    10.2375   5   7   2.3037   3.8173   5.8318   1.1409  -2.1087   0.4480   0.00    0.0
2021/05/17 02:45:16.000   22.302893634  114.177058966     3.6889   5   7   2.3039   3.8172   5.8312   1.1408  -2.1079   0.4486   0.00    0.0
2021/05/17 02:45:17.000   22.302964114  114.177095841     1.2957   5   7   2.3042   3.8171   5.8305   1.1407  -2.1071   0.4492   0.00    0.0
2021/05/17 02:45:18.000   22.302996681  114.177122462     4.2207   5   7   2.3044   3.8170   5.8298   1.1407  -2.1063   0.4498   0.00    0.0
2021/05/17 02:45:19.000   22.302995502  114.177193226     7.3705   5   6   2.5573   4.6896   6.5566  -1.3110   1.9353  -1.7674   0.00    0.0
2021/05/17 02:45:20.000   22.303016103  114.177289384    15.2625   5   6   2.5576   4.6899   6.5556  -1.3116   1.9361  -1.7672   0.00    0.0
2021/05/17 02:45:21.000   22.303023821  114.177379177    14.6036   5   6   2.5579   4.6902   6.5546  -1.3122   1.9368  -1.7669   0.00    0.0
2021/05/17 02:45:24.000   22.302908201  114.177484074    -7.4906   5   5   3.6422   3.9581   7.2046  -2.4630  -1.8305   0.6295   0.00    0.0
2021/05/17 02:45:25.000   22.302871462  114.177511526    -3.6618   5   5   3.6429   3.9586   7.2033  -2.4638  -1.8297   0.6279   0.00    0.0
2021/05/17 02:45:26.000   22.302891937  114.177560330     0.6525   5   4  10.3965   9.5949  23.8147   8.8898  13.9660  14.8803   0.00    0.0
2021/05/17 02:45:27.000   22.302947662  114.177597995     7.5869   5   4  10.3989   9.5944  23.8131   8.8903  13.9651  14.8815   0.00    0.0
2021/05/17 02:45:28.000   22.302921875  114.177601542     0.1148   5   4  10.4013   9.5939  23.8115   8.8908  13.9642  14.8828   0.00    0.0
2021/05/17 02:45:29.000   22.302843993  114.177629544   -43.9144   5   4   3.9963   6.6898  23.7923   3.5429   0.4330  -4.5246   0.00    0.0
2021/05/17 02:45:32.000   22.302842155  114.177702587    -6.8366   5   4   3.9945   6.6872  23.7810   3.5383   0.7034  -4.4991   0.00    0.0
2021/05/17 02:45:33.000   22.302801033  114.177759418   -14.5412   5   4   3.9939   6.6863  23.7772   3.5368   0.7724  -4.4906   0.00    0.0
2021/05/17 02:45:34.000   22.302795548  114.177811033   -16.9303   5   4   3.9933   6.6854  23.7735   3.5353   0.8356  -4.4820   0.00    0.0
2021/05/17 02:45:35.000   22.302733958  114.177848044     1.2000   5   4   3.8689   6.6969  11.6835   2.9755  -7.8667  -3.4175   0.00    0.0
2021/05/17 02:45:36.000   22.302693393  114.177976905    -1.8563   5   5   3.5171   6.4184  11.4453   3.4557  -7.5765  -3.9339   0.00    0.0
2021/05/17 02:45:37.000   22.302632013  114.177940290     5.8695   5   5   3.2764   5.6984  10.8533   1.2705  -6.8318  -1.6723   0.00    0.0
2021/05/17 02:45:38.000   22.302488620  114.177913957   -12.5284   5   4   7.3928   6.6964  12.8376   4.9928  -4.7460   6.5314   0.00    0.0
2021/05/17 02:45:39.000   22.302668746  114.178027551     3.4743   5   6   2.7814   5.4330  10.6452   2.1404  -6.5607  -2.5360   0.00    0.0
2021/05/17 02:45:40.000   22.302590789  114.178161558    -2.6042   5   4   4.6164   5.8571  15.2302   2.4575  -7.8222  -6.1284   0.00    0.0
2021/05/17 02:45:41.000   22.302591800  114.178260850   -18.2917   5   5   3.2772   5.6959  10.8464   1.2680  -6.8269  -1.6730   0.00    0.0
2021/05/17 02:45:42.000   22.302600651  114.178473982   -33.9632   5   4   3.8720   6.6996  11.6826   2.9801  -7.8688  -3.4290   0.00    0.0
2021/05/17 02:45:55.000   22.302288321  114.179454966    20.9283   5   4   3.9813   6.6679  23.6966   3.5045   1.6735  -4.3001   0.00    0.0
2021/05/17 02:45:57.000   22.301660090  114.179951541    45.1923   5   4  32.1717  35.1571  38.2533 -33.5068  36.1852 -34.6515   0.00    0.0
2021/05/17 02:46:01.000   22.301922952  114.179601790   -13.9867   5   4   4.0224  13.8923  12.1929  -4.1046   7.5401   4.4102   0.00    0.0
2021/05/17 02:46:02.000   22.301884408  114.179628217    -5.1076   5   5   3.4827   6.3073  12.1675   2.8439   6.8607   4.5887   0.00    0.0
2021/05/17 02:46:03.000   22.301802741  114.179621911     0.4187   5   5   3.4836   6.3078  12.1678   2.8445   6.8615   4.5902   0.00    0.0
2021/05/17 02:46:04.000   22.301748329  114.179608099   -13.5418   5   4   6.4809   9.9116  11.4584   7.2807  -7.6685  -4.0556   0.00    0.0
2021/05/17 02:46:11.000   22.301561284  114.179175902   -23.0141   5   4   4.0422  27.4203  60.8880  -4.8267 -40.5396   6.0176   0.00    0.0
2021/05/17 02:46:19.000   22.301660207  114.178710386    84.4210   5   4   5.2527   6.7298  11.7787  -5.1536  -6.3722   5.6946   0.00    0.0
