field.header.id,field.header.msg_type,field.header.port_addr,field.header.length,field.header.sequence,field.header.idle_time,field.header.time_status,field.header.gps_week,field.header.gps_week_seconds,field.header.receiver_status,field.header.reserved,field.header.software_version,field.ins_status,field.position_type,field.latitude,field.longitude,field.altitude,field.undulation,field.north_velocity,field.east_velocity,field.up_velocity,field.roll,field.pitch,field.azimuth,field.latitude_std,field.longitude_std,field.altitude_std,field.north_velocity_std,field.east_velocity_std,field.up_velocity_std,field.roll_std,field.pitch_std,field.azimuth_std,field.extended_status,field.seconds_since_update
1465,0,64,126,0,111,180,2051,46699000,0,19988,13754,3,54,22.3011555447101,114.17900031267,6.61369549669325,-2.20000004768372,0.003768519507261,-0.007898935189851,-0.006062906563377,-1.29512951831471,0.292010372182963,228.019929379084,0.251768350601196,0.26441165804863,0.253907918930054,0.00095177302137,0.001095850020647,0.001074855448678,0.004123847931623,0.00412719976157,0.056283850222826,68,0
1465,0,64,126,0,115,180,2051,46700000,0,19988,13754,3,54,22.3011554612177,114.179000322199,6.60528941266239,-2.20000004768372,-0.004189931807332,0.000415852241083,-0.001974956041743,-1.29447707800621,0.291912447942013,228.022362633983,0.251628041267395,0.264120161533356,0.249355524778366,0.000946541840676,0.001084495452233,0.001063279574737,0.00408375216648,0.004085379187018,0.056372985243797,68,0
1465,0,64,126,0,107,180,2051,46701000,0,19988,13754,3,54,22.3011553791093,114.179000332478,6.59589289780706,-2.20000004768372,0.001368721201358,-0.000457294883442,-0.002814017859171,-1.2998158197019,0.284552577810297,228.022167090674,0.25158029794693,0.264012217521667,0.245636865496635,0.000940439116675,0.001078055473045,0.001056282082573,0.004069893620908,0.004068138077855,0.056464165449143,68,0
1465,0,64,126,0,107,180,2051,46702000,0,19988,13754,3,54,22.3011552956191,114.179000343948,6.58528151363134,-2.20000004768372,-0.014744478168266,0.006153338078465,0.003917684449206,-1.31448049835456,0.283995401474733,228.019265848719,0.251565515995026,0.263973861932755,0.242706462740898,0.000934146111831,0.001074849511497,0.001052359701134,0.004061852581799,0.004063641186804,0.056571073830128,68,0
1465,0,64,126,0,114,180,2051,46703000,0,19988,13754,3,54,22.3011552148435,114.179000355322,6.57434173487127,-2.20000004768372,-0.013179271142565,0.004364384443978,0.004791493126343,-1.303140549754,0.284604588825794,228.022845043442,0.251554757356644,0.26396307349205,0.240464627742767,0.000928142981138,0.001073527731933,0.001050398452207,0.004061493556947,0.004060617182404,0.056710682809353,68,0
1465,0,64,126,0,108,180,2051,46704000,0,19988,13754,3,54,22.3011551403684,114.179000364983,6.56362492684275,-2.20000004768372,-0.004012373577938,-0.002852720947893,0.001908779951683,-1.29812013340769,0.287310453382292,228.024081638865,0.251540213823318,0.263951867818832,0.238773673772812,0.00092272751499,0.00107288453728,0.001049036625773,0.004062655381858,0.004058936610818,0.056805856525898,68,0
1465,0,64,126,0,108,180,2051,46705000,0,19988,13754,3,54,22.3011550723562,114.179000373556,6.55334213096648,-2.20000004768372,-0.00555177648407,-0.001334389269099,-0.001292761064462,-1.30100453561703,0.292182333525961,228.023988745851,0.251525104045868,0.263943284749985,0.237510696053505,0.000918057456147,0.001072545652278,0.001047984114848,0.004060933832079,0.004059868399054,0.056899875402451,68,0
1465,0,64,126,0,113,180,2051,46706000,0,19988,13754,3,54,22.301155010217,114.179000380712,6.54357991926372,-2.20000004768372,-0.002394850005813,-1.64600053684809E-05,0.003806365605357,-1.30092373028676,0.289780097196897,228.027456231424,0.251510739326477,0.263934850692749,0.236579477787018,0.000914019939955,0.00107227859553,0.001047191093676,0.004061337560415,0.004060013685375,0.056994572281838,68,0
1465,0,64,126,0,112,180,2051,46707000,0,19988,13754,3,54,22.3011549540206,114.17900038783,6.53439193684608,-2.20000004768372,0.00330191321747,-0.001221042996169,-0.000764012774908,-1.29923464740815,0.29623679607656,228.025057506562,0.251500874757767,0.263928234577179,0.235896438360214,0.000910754024517,0.001072132028639,0.001046569203027,0.00406043138355,0.004060419742018,0.057100228965283,68,0
1465,0,64,126,0,112,180,2051,46708000,0,19988,13754,3,54,22.3011549041076,114.179000394279,6.52584609668702,-2.20000004768372,-0.001353301098585,0.001510070997527,0.001847342626003,-1.29529928796859,0.293993304830011,228.02742064457,0.251492857933044,0.263922482728958,0.235399052500725,0.000908038287889,0.001071873819456,0.001045965589583,0.004059705883265,0.004060982726514,0.057204991579056,68,0
1465,0,64,126,0,116,180,2051,46709000,0,19988,13754,3,54,22.3011548580935,114.17900040107,6.51800725795329,-2.20000004768372,-0.004228988593835,0.0011528793489,0.008545791539444,-1.30201239748692,0.29012854488463,228.02535995533,0.251483350992203,0.263917952775955,0.235040038824081,0.000905918888748,0.001071659848094,0.001045437995344,0.004061026498675,0.004060262348503,0.057298641651869,68,0
1465,0,64,126,0,109,180,2051,46710000,0,19988,13754,3,54,22.3011548153839,114.179000407806,6.51090777479112,-2.20000004768372,-0.002457110774647,-0.000312048327131,0.005044697157957,-1.30242995242259,0.290870799659081,228.02740304695,0.251475960016251,0.263913094997406,0.234783872961998,0.000904225977138,0.001071514794603,0.001045113080181,0.004058436490595,0.004061000421643,0.057393163442612,68,0
1465,0,64,126,0,109,180,2051,46711000,0,19988,13754,3,54,22.3011547767111,114.179000414177,6.50446095131338,-2.20000004768372,0.002032566494267,0.003401106049524,-0.006266738534935,-1.29943734042084,0.300637159420182,228.021881833406,0.251469075679779,0.263908237218857,0.234603509306908,0.000902848609257,0.0010712913936,0.001044768257998,0.004059781786054,0.004059346858412,0.057487461715937,68,0
1465,0,64,126,0,112,180,2051,46712000,0,19988,13754,3,54,22.3011547421652,114.179000418013,6.49862906709313,-2.20000004768372,0.004050083716371,-0.004152489860862,0.000382750739042,-1.27766014141033,0.300815698599599,228.027508281819,0.251464128494263,0.263907760381699,0.234476268291473,0.000901716121007,0.001070943311788,0.001044302713126,0.004064119886607,0.00405777990818,0.057607814669609,68,0
1465,0,64,126,0,108,180,2051,46713000,0,19988,13754,3,54,22.301154709221,114.179000421322,6.4933144506067,-2.20000004768372,-0.007317856974055,0.000199959720967,0.004924663537333,-1.29183316073957,0.300719058941439,228.028047160256,0.251462131738663,0.263910740613937,0.234387934207916,0.000901047780644,0.001070881611668,0.001043981988914,0.004064437467605,0.004057645332068,0.057744167745113,68,0
1465,0,64,126,0,108,180,2051,46714000,0,19988,13754,3,54,22.3011546772605,114.179000425176,6.48850349709392,-2.20000004768372,-0.008508874556238,0.003254395107092,0.009589034081513,-1.30472777549707,0.299619487681849,228.030992435981,0.251458674669266,0.263910114765167,0.234328553080559,0.000900299870409,0.001070644240826,0.001043787109666,0.004064598120749,0.004057286307216,0.057863958179951,68,0
1465,0,64,126,0,116,180,2051,46715000,0,19988,13754,3,54,22.3011546469076,114.179000428842,6.48413343075663,-2.20000004768372,0.003123838356732,-0.00358888180261,0.003086118172356,-1.28532351399147,0.306921079375365,228.031168154883,0.251458436250687,0.26390990614891,0.234289258718491,0.000899728154764,0.001070486963727,0.001043624943122,0.00406219670549,0.004057036247104,0.057999454438686,68,0
1465,0,64,126,0,107,180,2051,46716000,0,19988,13754,3,54,22.301154617115,114.179000433518,6.48005938623101,-2.20000004768372,-0.000947727981039,-0.003454054694282,-0.004727158575745,-1.30249385691971,0.314153346662863,228.038511520168,0.251457750797272,0.263913482427597,0.234263315796852,0.000899323087651,0.001070245052688,0.001043265801854,0.004057749174535,0.004058807622641,0.058147009462118,68,0
1465,0,64,126,0,107,180,2051,46717000,0,19988,13754,3,54,22.3011545888597,114.179000439459,6.47621360328049,-2.20000004768372,0.000667170168591,0.00095994210131,-0.004879047260741,-1.28986480679365,0.312842771524576,228.03720575532,0.251453667879105,0.263915479183197,0.234247252345085,0.000898841186427,0.001069977646694,0.001043033436872,0.004057715181261,0.00405895896256,0.058285672217608,68,0
1465,0,64,126,0,112,180,2051,46718000,0,19988,13754,3,54,22.3011545623318,114.179000446788,6.47259238921106,-2.20000004768372,0.002975432390528,0.001279976935058,-0.001895286666322,-1.28357159339047,0.310583870225047,228.037986977869,0.251449853181839,0.263917207717895,0.234237968921661,0.000898477563169,0.001069789286703,0.001042799674906,0.004058990627527,0.004058390855789,0.058419141918421,68,0
1465,0,64,126,0,112,180,2051,46719000,0,19988,13754,3,54,22.3011545368979,114.179000455213,6.46921801287681,-2.20000004768372,0.000490850301287,0.001750440996075,0.002515887713058,-1.28664265162367,0.308240142307875,228.038457463493,0.251446157693863,0.26391339302063,0.234233006834984,0.000898203987163,0.00106963829603,0.001042558113113,0.004058866295964,0.004057805519551,0.058511279523373,68,0
1465,0,64,126,0,112,180,2051,46720000,0,19988,13754,3,54,22.3011545115633,114.179000464498,6.46606652531773,-2.20000004768372,-0.005438310953005,0.004564176189647,0.002227461558222,-1.28455008876313,0.304097177018813,228.038638147767,0.251442730426788,0.263909071683884,0.234231039881706,0.000897917489056,0.001069487072527,0.001042395015247,0.004057516809553,0.004057252313942,0.058603443205357,68,0
1465,0,64,126,0,112,180,2051,46721000,0,19988,13754,3,54,22.3011544864178,114.179000473895,6.46312189288437,-2.20000004768372,-0.009885914054011,0.005453090412218,0.005741758569186,-1.27989924900397,0.305980442830567,228.039292847775,0.251439213752747,0.26390478014946,0.234231248497963,0.000897613645066,0.001069252029993,0.001042180112563,0.004059005063027,0.004055397585034,0.058695457875729,68,0
1465,0,64,126,0,109,180,2051,46722000,0,19988,13754,3,54,22.3011544623034,114.17900048294,6.46040102466941,-2.20000004768372,-0.001905502191263,0.000824249423979,0.003684175395551,-1.27691680585342,0.304097042139228,228.040703888393,0.25143638253212,0.263900995254517,0.234233051538467,0.000897356367204,0.001069018384442,0.001041964278556,0.004060218576342,0.004054160322994,0.058787316083908,68,0
1465,0,64,126,0,109,180,2051,46723000,0,19988,13754,3,54,22.301154439107,114.179000491799,6.45790045242757,-2.20000004768372,0.003405114317699,-0.006626216606473,0.002175763031036,-1.27940927689962,0.301942628942596,228.037761948735,0.251433700323105,0.263898462057114,0.234236016869545,0.000897265621461,0.001068891724572,0.001041767071001,0.004059075843543,0.00405437964946,0.058877591043711,68,0
1465,0,64,126,0,113,180,2051,46724000,0,19988,13754,3,54,22.301154416922,114.179000501108,6.45558772236109,-2.20000004768372,0.000580147276176,-0.000523348425987,-0.00037897383057,-1.28219319976645,0.310651481058879,228.042593032937,0.251431107521057,0.263895004987717,0.234239369630814,0.000897070334759,0.001068731886335,0.001041672658175,0.004056100733578,0.004056191071868,0.058967992663384,68,0
1465,0,64,126,0,110,180,2051,46725000,0,19988,13754,3,54,22.3011543789862,114.17900048985,6.45341880340129,-2.20000004768372,-0.187978321592339,-0.220939576896253,0.00462835050805,-1.24595437274615,0.387505075317499,228.051627559429,0.251428186893463,0.263891577720642,0.234243407845497,0.000896907120477,0.001068603829481,0.001041542622261,0.004058474674821,0.004056121688336,0.059059124439955,68,0
1465,0,64,126,0,109,180,2051,46726000,0,19988,13754,3,54,22.3011495744884,114.178995775126,6.37570337206125,-2.20000004768372,-0.687866839588096,-0.779760423113505,0.003768980444587,-1.22754291875076,0.484937720544012,228.143580738359,0.251369118690491,0.263819932937622,0.234249129891396,0.001143668778241,0.001528383698314,0.001492421492003,0.004471042659134,0.004473096691072,0.059213899075985,68,0
1465,0,64,126,0,109,180,2051,46727000,0,19988,13754,3,54,22.3011407358211,114.178984939621,6.37634093500674,-2.20000004768372,-1.20436719567977,-1.39759661358979,0.01462346661383,-1.29265143979413,0.361187543576583,227.99006873342,0.25130221247673,0.263742327690125,0.23428612947464,0.001474354066886,0.002120273886248,0.002210250357166,0.004857359919697,0.004854856990278,0.059370633214712,450,0
1465,0,64,126,0,113,180,2051,46728000,0,19988,13754,3,54,22.301127948229,114.178969587403,6.37616622634232,-2.20000004768372,-1.61601924987601,-1.74742745706837,-0.011320719279006,-1.24387254723872,0.588537813230877,226.879651032861,0.251342803239822,0.263798624277115,0.234403267502785,0.00188269186765,0.002807914512232,0.003117313841358,0.005200284067541,0.005218340549618,0.059519462287426,450,0
1465,0,64,126,0,106,180,2051,46729000,0,19988,13754,3,54,22.3011124730577,114.178951929632,6.38444963283837,-2.20000004768372,-1.6956370827967,-1.72201118492342,0.022428408096781,-0.859556879326671,0.111007588556523,224.743857231287,0.251481652259827,0.263972818851471,0.234608292579651,0.002258736174554,0.003541246755049,0.003912115003914,0.005544525105506,0.005545999854803,0.059656891971827,450,0
1465,0,64,126,0,106,180,2051,46730000,0,19988,13754,3,54,22.3010972732893,114.178937201479,6.39519393350929,-2.20000004768372,-1.78307291900376,-1.263874111354,0.033366816977632,-0.546672680517092,0.6429245329028,218.612057867909,0.251802802085876,0.264353960752487,0.234883740544319,0.002562079578638,0.004254008177668,0.004518237896264,0.005852037575096,0.005871876142919,0.059784259647131,450,0
1465,0,64,126,0,111,180,2051,46731000,0,19988,13754,3,54,22.3010799521066,114.178926734528,6.41763201262802,-2.20000004768372,-2.12877485074292,-0.776813659904951,-0.012366667361474,-0.311056637262013,-0.078744329607926,204.315196233879,0.252233564853668,0.264839679002762,0.235183358192444,0.002829565433785,0.005066134501249,0.005040588323027,0.006184280849993,0.006164406426251,0.059901464730501,450,0
1465,0,64,126,0,105,180,2051,46732000,0,19988,13754,6,19,22.3010596112246,114.178923441711,6.40884815342724,-2.20000004768372,-2.35993461989658,0.076812391935356,-0.023851224055232,-0.070826973594446,-0.177857861590741,182.169059913942,0.252766579389572,0.265459895133972,0.235503509640694,0.003155461978167,0.006022568326443,0.005751539953053,0.006468678358942,0.006458101328462,0.060185674577952,64,1
1465,0,64,126,0,105,180,2051,46733000,0,19988,13754,6,19,22.3010386743432,114.178929424111,6.3999557569623,-2.20000004768372,-2.24613203977913,1.06717956641472,-0.037940348519425,-0.13572071450504,-0.471577600869688,159.357859007441,0.253450989723206,0.266329288482666,0.235881626605988,0.003508849302307,0.0070506981574,0.006518059410155,0.006716338917613,0.006737608928233,0.060882993042469,64,2
1465,0,64,126,0,105,180,2051,46734000,0,19988,13754,6,19,22.3010185178553,114.178942433944,6.38280123844743,-2.20000004768372,-2.25023484073173,1.59721196966411,0.009159258387842,-0.434246507357417,0.128856582604192,146.247348674111,0.254312187433243,0.267237216234207,0.236320719122887,0.003948630299419,0.00809348654002,0.007460491731763,0.006985746324062,0.00699930684641,0.061810340732336,64,3
1465,0,64,126,0,105,180,2051,46735000,0,19988,13754,3,54,22.3009967573867,114.178959874909,6.38929174654186,-2.20000004768372,-2.55307795607529,2.03572752691018,0.012478728391441,-0.303762115975059,-0.162533320270474,141.464751285781,0.255504101514816,0.268691629171371,0.236836403608322,0.00442434521392,0.009179219603539,0.008512659929693,0.007245489396155,0.007249948102981,0.062323063611984,448,0
1465,0,64,126,0,100,180,2051,46736000,0,19988,13754,3,54,22.3009725798626,114.17898133884,6.38090224470943,-2.20000004768372,-2.79524884336005,2.406516359623,-0.014822143256369,-0.335490859174166,0.035929425086539,138.733490534891,0.257120430469513,0.269887298345566,0.237429022789001,0.004885266534984,0.010395355522633,0.009605114348233,0.007490467745811,0.007492091041058,0.06263529509306,450,0
1465,0,64,126,0,98,180,2051,46737000,0,19988,13754,3,54,22.3009465252726,114.179006204897,6.38107879646123,-2.20000004768372,-2.98787579396921,2.70402981221571,0.010661791163145,-0.636690873307206,0.102132454643669,136.892752344384,0.2588871717453,0.270749241113663,0.238146647810936,0.005334146786481,0.011185865849257,0.010587288066745,0.007466340903193,0.007717781234533,0.062819048762322,450,0
1465,0,64,126,0,98,180,2051,46738000,0,19988,13754,3,54,22.3009189473131,114.179033905774,6.38742055837065,-2.20000004768372,-3.16623032613449,2.96654289814653,-0.011359339272062,-0.835959501743203,0.290281225482579,135.953659917929,0.260659158229828,0.273544669151306,0.238974377512932,0.005711769219488,0.012260694988072,0.011346271261573,0.007660200353712,0.007737118285149,0.062946103513241,450,0
1465,0,64,126,0,105,180,2051,46739000,0,19988,13754,3,54,22.3008888058098,114.179063776024,6.40428060293198,-2.20000004768372,-3.50845520353516,3.14200515604832,-0.004024691733734,-0.702073418309103,-0.032074698071606,136.412809136494,0.263272434473038,0.277190685272217,0.239937826991081,0.006147459149361,0.013401164673269,0.012280044145882,0.007887067273259,0.007866992615163,0.06304045021534,450,0
1465,0,64,126,0,96,180,2051,46740000,0,19988,13754,3,54,22.3008558610905,114.179095900502,6.41291135456413,-2.20000004768372,-3.77294867826189,3.40879121379708,-0.018892389810989,-0.500612326955512,-0.111566147527041,136.639679603347,0.266479402780533,0.28163206577301,0.241018936038017,0.006558451335877,0.014633904211223,0.013187910430133,0.008070406503975,0.007967012003064,0.063121154904366,450,0
1465,0,64,126,0,96,180,2051,46741000,0,19988,13754,3,54,22.3008205249518,114.179130275051,6.39329509437084,-2.20000004768372,-3.95084445495733,3.58838522509178,-0.130848015072319,-0.954462523129452,-0.133178508979085,136.923784381989,0.269939571619034,0.284775465726852,0.241707131266594,0.007048672065139,0.015489841811359,0.014293638058007,0.008127443492413,0.008162561804056,0.063155680894852,450,0
1465,0,64,126,0,102,180,2051,46742000,0,19988,13754,3,53,22.3007831536884,114.179166173325,6.38724036607891,-2.20000004768372,-4.30189981052788,3.78816561037167,0.00389775557449,-1.81968195582247,-0.117179308875269,137.191404508705,0.275355994701385,0.289211302995682,0.243104055523872,0.007519928272814,0.016194520518184,0.015268688090146,0.008187313564122,0.008325332775712,0.063167124986649,195,0
1465,0,64,126,0,100,180,2051,46743000,0,19988,13754,3,53,22.3007432687004,114.17920385827,6.39611342176795,-2.20000004768372,-4.52766599751509,3.90447811678803,0.016313328458363,-1.3168442115261,0.421896038282921,137.712735418878,0.280413001775742,0.293806999921799,0.244655191898346,0.00794406235218,0.016841104254127,0.016118509694934,0.008219372481108,0.008415301330388,0.06320059299469,450,0
1465,0,64,126,0,100,180,2051,46744000,0,19988,13754,3,54,22.3007025914656,114.17924197368,6.42761904653162,-2.20000004768372,-4.41917466070613,3.82449448956415,0.022791756367443,-0.75941772687143,0.087339603434814,137.569647550542,0.279847502708435,0.29892435669899,0.24638569355011,0.007887543179095,0.017533425241709,0.015334712341428,0.0082415221259,0.008046478964388,0.063204236328602,450,0
1465,0,64,126,0,97,180,2051,46745000,0,19988,13754,3,54,22.3006635097001,114.179278648165,6.45892572496086,-2.20000004768372,-4.21616268685784,3.69095559998644,0.017377739010645,-0.771780300236415,-0.069879591503601,137.822304606306,0.277510762214661,0.303752839565277,0.248302057385445,0.007743853610009,0.017997201532126,0.014092960394919,0.008216320537031,0.007666743826121,0.063156820833683,450,0
1465,0,64,126,0,84,180,2051,46746000,0,19988,13754,3,54,22.3006256835383,114.17931381151,6.47404305078089,-2.20000004768372,-4.03917058045238,3.55771701861514,0.023040295434435,-0.891748598953411,0.205486918073862,137.691403654476,0.278281450271606,0.305287659168243,0.25039467215538,0.007612311746925,0.01843729428947,0.012663772329688,0.007959212176502,0.007635573856533,0.063236735761166,450,0
1465,0,64,126,0,84,180,2051,46747000,0,19988,13754,3,54,22.300589675756,114.179347283789,6.48747594282031,-2.20000004768372,-3.95228147333296,3.24152365177013,-0.018230094335914,-1.17361696210033,-0.114566099373579,138.420977821794,0.280918657779694,0.309286266565323,0.252637028694153,0.007688684388995,0.019105328246951,0.012123124673963,0.00791060552001,0.007706819567829,0.06338707357645,450,0
1465,0,64,126,0,102,180,2051,46748000,0,19988,13754,3,54,22.3005519300988,114.179378075815,6.51426974497736,-2.20000004768372,-4.49658035529902,3.17987874800036,0.062626614181758,-1.04083452735417,0.388554453998688,142.785557483247,0.283732384443283,0.313670724630356,0.255081415176392,0.007843947038054,0.019703485071659,0.011847310699523,0.007926645688713,0.007778415456414,0.063327044248581,450,0
1465,0,64,126,0,99,180,2051,46749000,0,19988,13754,3,54,22.3005085905704,114.1794082663,6.56061587203294,-2.20000004768372,-5.01611303122978,3.16568579943949,0.034192932647366,-1.43500554900914,0.257335944235953,145.772615567534,0.289621740579605,0.321419477462769,0.257741302251816,0.00824573263526,0.020749485120177,0.012629402801395,0.008125599473715,0.00802266318351,0.063231594860554,450,0
1465,0,64,126,0,99,180,2051,46750000,0,19988,13754,3,54,22.3004611917707,114.179440716002,6.58697034604847,-2.20000004768372,-5.31633202329935,3.45589809935606,0.026357766881377,-0.796756173326132,-0.065736255747058,145.56429061795,0.29568874835968,0.330365777015686,0.260694533586502,0.008493941277266,0.021937752142549,0.012755668722093,0.008255972526968,0.008188270963728,0.063312686979771,450,0
1465,0,64,126,0,102,180,2051,46751000,0,19988,13754,3,53,22.3004121014729,114.179476566867,6.60037151165307,-2.20000004768372,-5.47216875397493,3.91611897354321,0.013017581911788,-0.586988863870133,0.008441266390544,142.926019750374,0.302614539861679,0.339856386184692,0.263959765434265,0.008747148327529,0.023133896291256,0.012836341746152,0.008371950127184,0.008366833440959,0.063473343849182,450,0
1465,0,64,126,0,108,180,2051,46752000,0,19988,13754,3,53,22.3003622141487,114.17951696191,6.63000414706767,-2.20000004768372,-5.50174027686689,4.36383835495566,0.088153172238292,-0.384200601360289,0.338389710560884,140.443491055807,0.306906282901764,0.346548616886139,0.266539871692658,0.009011381305754,0.024253096431494,0.012891215272248,0.008470628410578,0.008509662002325,0.063717573881149,450,0
1465,0,64,126,0,103,180,2051,46753000,0,19988,13754,3,53,22.3003116026275,114.179561093314,6.66803691443056,-2.20000004768372,-5.57833475774855,4.58948103845299,0.001089053558417,-0.086431086991396,0.185368260862364,139.04927819332,0.314543277025223,0.353140950202942,0.270458251237869,0.009190184064209,0.024978224188089,0.012611791491509,0.008405407890677,0.008646768517792,0.063885137438774,195,0
1465,0,64,126,0,103,180,2051,46754000,524288,19988,13754,3,54,22.3002616081832,114.179606664735,6.70442201755941,-2.20000004768372,-5.40485185650289,4.55207312264986,0.00907984277384,-0.25384707534225,0.189166975272931,137.846006156705,0.321897923946381,0.361251026391983,0.274755299091339,0.009402859956026,0.025689668953419,0.012412096373737,0.008421716280282,0.008755932562053,0.064077973365784,450,0
1465,0,64,126,0,103,180,2051,46755000,524288,19988,13754,3,19,22.3002138668407,114.179651378987,6.73597855865955,-2.20000004768372,-5.05448342683156,4.42081332799394,-0.03415387090465,-0.730481765265875,0.287371283677568,137.576827337555,0.327912151813507,0.369522839784622,0.279417872428894,0.009628756903112,0.026221057400107,0.012157251127064,0.008438477292657,0.008735562674701,0.064241461455822,450,0
1465,0,64,126,0,100,180,2051,46756000,0,19988,13754,3,54,22.3001705448182,114.17969184126,6.78374778106809,-2.20000004768372,-4.33257476434989,3.71575338453951,0.003234459051408,-0.572881187730611,0.021767159242339,137.387618640603,0.332791417837143,0.37718141078949,0.284428030252457,0.009873365983367,0.026523159816861,0.011894627474249,0.008546113967896,0.008813965134323,0.064379408955574,450,0
1465,0,64,126,0,100,180,2051,46757000,0,19988,13754,3,54,22.3001346613087,114.179724682242,6.81433315761387,-2.20000004768372,-3.44111897563507,3.06345238106454,0.060372500860968,-0.35751280537922,-0.326125865741077,137.120523696395,0.337975144386291,0.388446301221848,0.289810955524445,0.010165695101023,0.027232561260462,0.011787476949394,0.008736737072468,0.008802035823464,0.064540378749371,450,0
1465,0,64,126,0,98,180,2051,46758000,0,19988,13754,3,53,22.3001077504513,114.179749554222,6.83723635505885,-2.20000004768372,-2.39104933360111,1.98646876315136,0.02508689216763,-0.906227617563643,-0.22335619093247,137.067764345261,0.349078983068466,0.403473198413849,0.295494616031647,0.01058226171881,0.028612203896046,0.012252082116902,0.008960182778537,0.009050975553691,0.064691334962845,450,0
1465,0,64,126,0,98,180,2051,46759000,0,19988,13754,3,53,22.3000922080112,114.179763268858,6.86280878912658,-2.20000004768372,-1.06139135243571,0.793295216619188,0.019344296494593,-0.967737832687704,-0.132933938500531,137.111502045752,0.36105814576149,0.419501304626465,0.301482081413269,0.011013991199434,0.03012465685606,0.012733444571495,0.009118949994445,0.009204813279212,0.064832530915737,450,0
1465,0,64,126,0,92,180,2051,46760000,0,19988,13754,3,54,22.300088059395,114.179769158605,6.88101189676672,-2.20000004768372,-0.13085478658199,-0.000728116373365,0.027281989824917,-0.976458235471817,-0.034948293029416,137.151606988398,0.353049725294113,0.412288546562195,0.307644665241241,0.0112290577963,0.028322918340564,0.01232161745429,0.00893943477422,0.008785624057055,0.064878113567829,450,0
1465,0,64,126,0,92,180,2051,46761000,524288,19988,13754,3,54,22.3000887937186,114.17977046157,6.89606681279838,-2.20000004768372,-0.007085091945845,-0.096892735705564,0.026610522849782,-0.980614885328884,0.121251250035148,137.159786753582,0.343546211719513,0.402930051088333,0.313984781503677,0.011467816308141,0.02599873021245,0.011893355287612,0.008749667555094,0.008391425013542,0.064759187400341,450,0
1465,0,64,126,0,100,180,2051,46762000,524288,19988,13754,3,19,22.3000894743256,114.179772134849,6.9011671487242,-2.20000004768372,-0.007877594276199,-0.083724371090813,0.021314378563896,-0.983556742314537,0.112485851368485,137.164958081912,0.337698101997375,0.39597761631012,0.320592701435089,0.011693395674229,0.023953726515174,0.011460468173027,0.008552918210626,0.008153707720339,0.064599819481373,450,0
1465,0,64,126,0,96,180,2051,46763000,524288,19988,13754,3,19,22.3000915967748,114.179774282593,6.89875795505941,-2.20000004768372,0.005995139058446,-0.062155329031804,0.02313401753668,-0.981992717358244,0.10667000650532,137.168091960994,0.327831983566284,0.391030550003052,0.325751543045044,0.011984600685537,0.022552384063602,0.011383269913495,0.008534944616258,0.008051445707679,0.064528271555901,450,0
1465,0,64,126,0,96,180,2051,46764000,0,19988,13754,3,53,22.3000921771813,114.179774687988,6.89860303793103,-2.20000004768372,0.00176941843987,-0.06488978523922,0.01541127849563,-0.986931030279792,0.113112395946119,137.17069607994,0.328118473291397,0.390610158443451,0.329675912857056,0.012118769809604,0.021555868908763,0.011835201643407,0.008530871011317,0.008148931898177,0.064487285912037,195,0
1465,0,64,126,0,99,180,2051,46765000,0,19988,13754,3,54,22.3000932728912,114.179776589761,6.84579021111131,-2.20000004768372,0.013364044769848,-0.033579332455957,0.013812151247187,-0.993398648226049,0.109771835291622,137.177123427354,0.316995412111282,0.371150970458984,0.32272407412529,0.011249608360231,0.016766643151641,0.011262756772339,0.008038325235248,0.007847640663385,0.064329281449318,68,0
1465,0,64,126,0,99,180,2051,46766000,0,19988,13754,3,54,22.3000938730768,114.179778494801,6.75440537557006,-2.20000004768372,0.005849409837236,-0.022953555720813,0.001678140241525,-0.997653272807558,0.110589997851535,137.181571932044,0.305461436510086,0.351756185293198,0.302652388811111,0.008989705704153,0.010996104218066,0.009185368195176,0.007444413378835,0.007268249057233,0.064264163374901,68,0
1465,0,64,126,0,99,180,2051,46767000,0,19988,13754,3,54,22.3000939614141,114.179779275449,6.71256654988974,-2.20000004768372,0.004751569422444,-0.010502875448932,-0.001115401361765,-0.999904511055083,0.105111478477217,137.18112185139,0.301648169755936,0.345563530921936,0.288076013326645,0.007046543527395,0.007899730466306,0.007301682606339,0.007186705246568,0.006910976022482,0.064320579171181,68,0
1465,0,64,126,0,101,180,2051,46768000,0,19988,13754,3,54,22.3000939506204,114.179779441972,6.71140712220222,-2.20000004768372,-0.005431515686762,-0.006171601766552,-0.00063911904391,-0.998541344440158,0.104270741710887,137.180847341526,0.298699289560318,0.341472536325455,0.262842923402786,0.001465911860578,0.001473521115258,0.001470288611017,0.00649575330317,0.006008177064359,0.064401477575302,68,0
1465,0,64,126,0,99,180,2051,46769000,0,19988,13754,3,54,22.3000939040436,114.179779488282,6.71071936842054,-2.20000004768372,-0.00076505827293,-0.005267008991301,-0.003639803038443,-1.00322784324355,0.106131201180029,137.176061185376,0.296513825654984,0.338517367839813,0.262681931257248,0.00110269675497,0.001192738418467,0.001161570427939,0.006080858875066,0.005712426733226,0.064345881342888,68,0
1465,0,64,126,0,92,180,2051,46770000,0,19988,13754,3,53,22.3000938678208,114.179779481641,6.71038455422968,-2.20000004768372,-0.001803445667744,-0.005682204177947,-0.002224884000748,-1.00319708252368,0.104785734233145,137.174311689314,0.292404383420944,0.333049416542053,0.262729316949844,0.000989623367786,0.00117795157712,0.00111776846461,0.005344143137336,0.005140910856426,0.064245112240315,68,0
1465,0,64,126,0,92,180,2051,46771000,0,19988,13754,3,53,22.3000938303668,114.179779436067,6.70960203558207,-2.20000004768372,-0.002628719964579,-0.007532189122684,-0.003194148928352,-1.00488682643336,0.104124105477462,137.170431486277,0.289209097623825,0.328888326883316,0.262659549713135,0.00095213210443,0.001168624847196,0.001111078890972,0.004732353147119,0.004637736827135,0.064202509820461,68,0
1465,0,64,126,0,100,180,2051,46772000,0,19988,13754,3,53,22.3000937938939,114.179779367025,6.70766913052648,-2.20000004768372,-0.001021092340857,-0.005827912510519,-0.005480895148042,-1.01034915832702,0.10316258020241,137.16620079265,0.28739270567894,0.326545268297195,0.262440234422684,0.000940440513659,0.001144847134128,0.001098997658119,0.004364192485809,0.004320771433413,0.064222648739815,68,0
1465,0,64,126,0,100,180,2051,46773000,0,19988,13754,3,53,22.300093762256,114.179779290334,6.70443234127015,-2.20000004768372,-0.002043013970125,-0.006299470601307,-0.004808155408122,-1.01250092052064,0.103410368427668,137.164950446069,0.286481857299805,0.325364023447037,0.262119710445404,0.000937149918173,0.00112032215111,0.001084519433789,0.004176307469606,0.004153811838478,0.064278014004231,68,0
1465,0,64,126,0,103,180,2051,46774000,0,19988,13754,3,53,22.3000937357652,114.179779214924,6.70039433985949,-2.20000004768372,-0.002145159271161,-0.005811416140436,-0.002576905550738,-1.00810739916913,0.100569691134351,137.1669922028,0.286055117845535,0.324802547693253,0.261763155460358,0.0009357733652,0.001101875328459,0.001072557410225,0.004090876318514,0.004075534641743,0.064349062740803,68,0
1465,0,64,126,0,98,180,2051,46775000,0,19988,13754,3,53,22.3000937136324,114.179779143268,6.69575558230281,-2.20000004768372,0.006983323998587,0.004730663111753,-0.00257713122243,-1.00725968345536,0.097448863496155,137.166290899375,0.285863429307938,0.324542641639709,0.261420011520386,0.000934079522267,0.001090261503123,0.001064416952431,0.004055718891323,0.004045309498906,0.064429022371769,68,0
1465,0,64,126,0,98,180,2051,46776000,0,19988,13754,3,53,22.3000936942126,114.179779077362,6.69060119614005,-2.20000004768372,0.002077877433987,0.002459725874925,-0.004385486746851,-1.01091357959496,0.098277237458879,137.165910171967,0.285777449607849,0.324417144060135,0.261115163564682,0.000931693415623,0.001083965296857,0.001059585832991,0.004043358378112,0.004034798126668,0.064513601362705,68,0
1465,0,64,126,0,91,180,2051,46777000,0,19988,13754,3,53,22.3000936771943,114.179779018029,6.68505014013499,-2.20000004768372,-0.000149192373347,-0.003576234007058,-0.00581409698788,-1.00866006032612,0.10475524022191,137.165824375979,0.285737991333008,0.324343651533127,0.260863274335861,0.000928784837015,0.001081022550352,0.001056989189237,0.004039174411446,0.00403217645362,0.06459853053093,68,0
1465,0,64,126,0,90,180,2051,46778000,0,19988,13754,3,53,22.3000936621778,114.179778964403,6.67929892893881,-2.20000004768372,-0.003363862769448,-0.004491807198555,-0.003796072889933,-1.00807925629276,0.104264989751348,137.165547011656,0.28571692109108,0.324290126562119,0.260661840438843,0.000925675209146,0.001079752808437,0.001055535161868,0.004038252867758,0.004031769465655,0.064684674143791,68,0
1465,0,64,126,0,90,180,2051,46779000,0,19988,13754,3,53,22.3000936485032,114.179778915325,6.67352366726846,-2.20000004768372,-0.003913241031518,-0.004945758782323,-0.004703618542841,-1.00856418417513,0.106789159805456,137.165496465428,0.28570294380188,0.324244499206543,0.260505378246307,0.000922618201002,0.001079251640476,0.001054686843418,0.004037361592054,0.004032190423459,0.064770489931107,68,0
1465,0,64,126,0,92,180,2051,46780000,0,19988,13754,3,53,22.3000936365282,114.179778870058,6.66787979751825,-2.20000004768372,0.000329358598748,-0.004038292640195,-0.003903097403532,-1.00916269052597,0.107975810593564,137.164987196237,0.285692244768143,0.324202746152878,0.260386407375336,0.000919782556593,0.001078971195966,0.001054012682289,0.004037931095809,0.004030389711261,0.064855493605137,68,0
1465,0,64,126,0,92,180,2051,46781000,524288,19988,13754,3,53,22.3000936258895,114.179778826392,6.66229385789484,-2.20000004768372,-0.001850255864506,-0.007622160978575,-0.007016659117001,-1.00122983141586,0.104940713643724,137.166159841577,0.28568309545517,0.324163228273392,0.26029697060585,0.000917284516618,0.001078752218746,0.001053443062119,0.004038003273308,0.004029809497297,0.064941056072712,68,0
1465,0,64,126,0,87,180,2051,46782000,524288,19988,13754,3,53,22.3000936156683,114.179778782903,6.65679006837308,-2.20000004768372,-0.004777497443744,-0.012030996085915,-0.004533891527127,-0.999580109951319,0.106387398630756,137.165413121525,0.285674005746841,0.32412526011467,0.260230451822281,0.000915149576031,0.001078514498658,0.001052889158018,0.004037227947265,0.004031309857965,0.065027542412281,68,0
1465,0,64,126,0,87,180,2051,46783000,524288,19988,13754,3,19,22.3000936058721,114.179778739163,6.65135503560305,-2.20000004768372,-0.001580854775941,-0.012749723197351,-0.00776077932992,-1.00293603763255,0.103715147233172,137.1641539046,0.285665571689606,0.324087470769882,0.260181754827499,0.00091336335754,0.001078323810361,0.001052448293194,0.004036773461849,0.00403286376968,0.065113596618176,68,0
1465,0,64,126,0,100,180,2051,46784000,524288,19988,13754,3,19,22.3000935609682,114.17977872953,6.64585614111275,-2.20000004768372,-0.201236250164552,0.168646342024665,-0.002089986297353,-0.98640013833673,0.183190726187117,137.174503361017,0.285656750202179,0.324050813913345,0.260146349668503,0.000911925337277,0.001078107394278,0.00105201988481,0.004036517813802,0.004032935015857,0.065199129283428,68,0
1465,0,64,126,0,100,180,2051,46785000,524288,19988,13754,3,19,22.3000895484788,114.179781497829,6.52155343908817,-2.20000004768372,-0.504627412559855,0.452634010515241,-0.005663796357403,-0.917284256790994,0.139433880157002,137.082981337373,0.285447835922241,0.323705077171326,0.260131418704987,0.001162230153568,0.001580271986313,0.00150138954632,0.004487199243158,0.004483884200454,0.065336532890797,68,0
1465,0,64,126,0,95,180,2051,46786000,524288,19988,13754,3,19,22.3000838017514,114.179786844766,6.48835933674127,-2.20000004768372,-0.761371672369797,0.67015271723216,-0.0034668289702,-0.859546319259389,0.190767729044271,136.903290381838,0.285501390695572,0.323795139789581,0.260150134563446,0.00144074880518,0.002258588792756,0.002054241253063,0.004900970961899,0.004894652869552,0.065489262342453,450,0
1465,0,64,126,0,95,180,2051,46787000,524288,19988,13754,3,19,22.3000756384659,114.179794471891,6.45584052521735,-2.20000004768372,-1.08374469114356,0.953729678190109,-0.006639243366019,-0.829670636450319,0.165237305877935,137.071393425275,0.285548508167267,0.323986768722534,0.260218769311905,0.001742978580296,0.0030013686046,0.002668851986527,0.005288384854794,0.005275978241116,0.065633967518807,194,1
1465,0,64,126,0,100,180,2051,46788000,524288,19988,13754,3,19,22.3000639860012,114.179804684426,6.42905011121184,-2.20000004768372,-1.4428818808766,1.16228304373847,0.007123743833246,-0.484463861513957,0.27309273598597,138.948742626038,0.285264283418655,0.323682367801666,0.260330229997635,0.002070073504001,0.003856708994135,0.003354948014021,0.005663403309882,0.005644837860018,0.065730318427086,450,0
1465,0,64,126,0,105,180,2051,46789000,0,19988,13754,3,53,22.3000480151959,114.179817584801,6.42303928453475,-2.20000004768372,-2.24785783879452,1.55928102484595,-0.011310300937086,-0.541674710565753,0.24810409207157,142.744172543437,0.285104304552078,0.323573887348175,0.26050266623497,0.002409588778391,0.004774734843522,0.004068492911756,0.006009365897626,0.005987194832414,0.065783746540547,450,0
1465,0,64,126,0,92,180,2051,46790000,0,19988,13754,3,54,22.300022042546,114.179832793495,6.42749848309904,-2.20000004768372,-3.45269793634828,1.37003205119769,0.03861920885863,-1.05223276047047,0.442434808646579,154.523797069187,0.285100102424622,0.323699146509171,0.260738372802734,0.002772619016469,0.006017754320055,0.004863298498094,0.006335949059576,0.006313019432127,0.065611325204372,450,0
1465,0,64,126,0,92,180,2051,46791000,0,19988,13754,3,54,22.2999870210695,114.179841697038,6.45013501867652,-2.20000004768372,-4.15330667811627,0.247991068869108,0.02085100077236,-0.875434389455314,0.625944517492104,171.535398447611,0.285554498434067,0.32455238699913,0.261098235845566,0.003180807689205,0.007360492367297,0.005779212340713,0.006650189869106,0.006640125997365,0.065167188644409,450,0
1465,0,64,126,0,96,180,2051,46792000,0,19988,13754,3,53,22.2999496663841,114.179837376604,6.48321672156453,-2.20000004768372,-4.04454596654297,-1.06450854400266,0.045718594583569,-0.23028218013894,0.237465348168524,191.811721046268,0.286105662584305,0.326101064682007,0.261571407318115,0.003705109702423,0.008221182972193,0.00692553864792,0.006979680620134,0.006943575572222,0.064876765012741,450,0
1465,0,64,126,0,91,180,2051,46793000,0,19988,13754,3,54,22.2999154783688,114.179819763105,6.48192257061601,-2.20000004768372,-3.57660521120643,-2.55526177964785,0.004813799631159,-0.367618283391701,-0.783339041570475,210.296732631918,0.28673592209816,0.328437834978104,0.262078493833542,0.004312323872,0.008819743059576,0.00818813033402,0.007274772506207,0.007257440127432,0.064894303679466,450,0
1465,0,64,126,0,91,180,2051,46794000,0,19988,13754,3,54,22.2998830438981,114.179790615175,6.42364311404526,-2.20000004768372,-3.56848699120541,-3.47158743599948,-0.065643954292473,-1.4895850204388,-0.433467804941127,221.713703689957,0.28730496764183,0.330872923135757,0.262575417757034,0.005016473121941,0.009595540352166,0.009579267352819,0.007558567449451,0.007558841723949,0.065137222409248,450,0
1465,0,64,126,0,102,180,2051,46795000,524288,19988,13754,3,54,22.299850566751,114.179753100933,6.38949286937714,-2.20000004768372,-3.55258830477176,-4.27207541946038,-0.002339895583442,-2.16620618046144,-0.779596655948545,227.65969962714,0.287842601537705,0.332464903593063,0.26307412981987,0.005637940950692,0.010576499626041,0.010859145782888,0.007773900404572,0.007808731403202,0.065240770578384,450,0
1465,0,64,126,0,100,180,2051,46796000,0,19988,13754,3,19,22.2998184049163,114.179709844979,6.35403524432331,-2.20000004768372,-3.47751713439353,-4.55336243005338,-0.021969540310815,-1.83091327590971,-0.691822959204397,229.667385555057,0.288298100233078,0.333250671625137,0.263655960559845,0.006234447006136,0.011265123263002,0.012067618779838,0.007842272520065,0.008044393733144,0.065167769789696,450,0
1465,0,64,126,0,100,180,2051,46797000,0,19988,13754,3,54,22.2997864318701,114.179666186429,6.35308245941997,-2.20000004768372,-3.5280712969545,-4.41195940631325,-0.095686378146511,-1.4506011256601,-0.559953186103322,229.861686751835,0.289745986461639,0.336154490709305,0.264343559741974,0.006801690906286,0.012480820529163,0.013242668472231,0.008119277656078,0.008317192085087,0.065317049622536,450,0
1465,0,64,126,0,106,180,2051,46798000,524288,19988,13754,6,19,22.2997556487213,114.179623815519,6.33687020558864,-2.20000004768372,-3.37403790067897,-4.20191491487161,-0.040066163260416,-0.94915663859643,0.267979005999661,229.568680631501,0.291913777589798,0.339528650045395,0.265113353729248,0.007275387179106,0.013670637272298,0.014271546155214,0.008353665471077,0.008513829670846,0.065471768379212,64,1
1465,0,64,126,0,98,180,2051,46799000,524288,19988,13754,3,19,22.2997242539016,114.179581790711,6.3495367737487,-2.20000004768372,-3.62593899232903,-4.49608973355966,0.040678908168752,-1.41483003005931,0.219252345986463,229.081969776889,0.295061498880386,0.343585073947906,0.265970021486282,0.007774578873068,0.014968647621572,0.015290613286197,0.008635677397251,0.008747859857976,0.065625339746475,194,2
1465,0,64,126,0,98,180,2051,46800000,524288,19988,13754,3,19,22.2996898357832,114.179536227127,6.37595557700843,-2.20000004768372,-3.95623270866263,-4.91434575750993,0.034545416769049,-1.98577754096341,0.063497498643274,228.95649991319,0.298848986625671,0.348030775785446,0.266903936862946,0.008344587869942,0.015947159379721,0.016515450552106,0.008782380260527,0.008905110880733,0.065748631954193,448,0
1465,0,64,126,0,99,180,2051,46801000,0,19988,13754,3,54,22.2996525932135,114.179486116712,6.3895974913612,-2.20000004768372,-4.28336697718952,-5.431942471625,0.032248360918174,-1.32567331995871,0.12148797866544,229.197806475971,0.303837984800339,0.353365153074264,0.268015265464783,0.008976117707789,0.017130233347416,0.017920175567269,0.008996245451272,0.009122047573328,0.065909966826439,450,0
1465,0,64,126,0,99,180,2051,46802000,0,19988,13754,3,54,22.2996133782579,114.179432857485,6.40240998566151,-2.20000004768372,-4.38327154572416,-5.49199791761058,0.0701322409361,-1.01889111659144,0.131093474042295,229.403804680767,0.310053318738937,0.359872698783875,0.269337147474289,0.009650913067162,0.01826392672956,0.019366597756744,0.009176581166685,0.009334424510598,0.066076219081879,450,0
1465,0,64,126,0,101,180,2051,46803000,0,19988,13754,3,54,22.299573696065,114.179379371614,6.42464067507535,-2.20000004768372,-4.49232847922849,-5.61586677462779,0.032884771027568,-1.1441296352911,0.123211729569499,229.184908647941,0.318088948726654,0.367746263742447,0.270887494087219,0.010264872573316,0.01967036165297,0.020683508366346,0.009406703524292,0.009565688669682,0.066228955984116,450,0
1465,0,64,126,0,99,180,2051,46804000,0,19988,13754,3,54,22.2995318879368,114.179324008376,6.45016720890999,-2.20000004768372,-4.7892585830442,-5.83519287040719,0.043654874650746,-0.561291323941032,0.085323346437845,228.339484984191,0.327800512313843,0.374220550060272,0.272625058889389,0.010855099186301,0.020385514944792,0.022010825574398,0.009418648667634,0.009795857593417,0.066335409879685,450,0
1465,0,64,126,0,99,180,2051,46805000,0,19988,13754,3,54,22.2994872474075,114.179266599277,6.48151323199272,-2.20000004768372,-5.11933192334032,-5.96357706755201,0.037347000612281,-0.510036007059285,0.079153450609218,227.488620070775,0.339336931705475,0.384300023317337,0.274585366249084,0.011514821089804,0.021827043965459,0.023489257320762,0.009655094705522,0.010031722486019,0.066486351191998,450,0
1465,0,64,126,0,109,180,2051,46806000,0,19988,13754,3,19,22.2994403539532,114.179208193832,6.50699462089688,-2.20000004768372,-5.23264708822454,-6.14531164268671,0.063996436245411,-1.08232440217216,0.053984951361063,226.792921083923,0.352798670530319,0.395944267511368,0.276813626289368,0.01215104572475,0.023306142538786,0.024957668036223,0.009889453649521,0.010248765349388,0.06664227694273,66,1
1465,0,64,126,0,105,180,2051,46807000,0,19988,13754,3,19,22.2993916676182,114.179148585501,6.50104233063757,-2.20000004768372,-5.47681981053528,-6.16694233119388,0.059382477406536,-0.903196131237606,-0.020913208776383,226.157495658694,0.368266761302948,0.409304410219193,0.279324531555176,0.012848754413426,0.024826614186168,0.026468617841601,0.010107591748238,0.010484991595149,0.06678006798029,66,2
1465,0,64,126,0,105,180,2051,46808000,0,19988,13754,3,53,22.2993417482294,114.179088238344,6.53641116991639,-2.20000004768372,-5.56140463206008,-6.16542658560708,-0.041626633164702,-0.792185051148752,-0.041330112756274,226.044699543243,0.38574343919754,0.424294590950012,0.282117903232574,0.013498444110155,0.02634783834219,0.027945464476943,0.010342027060688,0.010704907588661,0.066934436559677,450,0
1465,0,64,126,0,108,180,2051,46809000,0,19988,13754,3,53,22.2992919589226,114.179027641922,6.56840210501105,-2.20000004768372,-5.41438479305665,-6.28061003687893,0.067917076858457,-1.13129015649351,0.260432672878243,226.649785182172,0.40437513589859,0.440235108137131,0.285207748413086,0.014165950007737,0.027567205950618,0.029399463906884,0.010544115677476,0.010884623974562,0.06709685921669,450,0
1465,0,64,126,0,110,170,2051,46810000,0,19988,13754,3,53,22.2992449948812,114.178968411008,6.61902351118624,-2.20000004768372,-5.24508673556769,-6.07246999515647,-0.003252251809942,-1.39487391798403,-0.208033023438177,227.50481204572,0.426047682762146,0.458819031715393,0.288598448038101,0.014894871972501,0.029163543134928,0.03092229925096,0.010722016915679,0.011102123185992,0.067283421754837,450,0
1465,0,64,126,0,110,180,2051,46811000,0,19988,13754,6,19,22.2991988342282,114.178909311798,6.71473638899624,-2.20000004768372,-5.21562432668658,-6.23218389742373,0.138647290839963,-1.48159244552147,-0.181792431416186,227.668374346822,0.44990661740303,0.47921633720398,0.292295426130295,0.015580551698804,0.0307792481035,0.032409325242043,0.011024220846593,0.011361380107701,0.067459143698216,64,1
1465,0,64,126,0,110,180,2051,46812000,0,19988,13754,6,19,22.2991517584976,114.178848271149,6.79764074925333,-2.20000004768372,-5.16538463728616,-6.19513022738451,0.003138168924227,-0.881026423787153,-0.345224140809338,227.77924333364,0.475906908512116,0.501518547534943,0.296289384365082,0.016364166513085,0.032453916966915,0.034068714827299,0.011247670277953,0.011628747917712,0.06763207167387,64,2
1465,0,64,126,0,109,180,2051,46813000,524288,19988,13754,6,19,22.2991053675935,114.178786875245,6.88070052489638,-2.20000004768372,-5.13451347215335,-6.41382756454911,0.10243507341531,-1.21911571680092,0.45190759464955,229.097912918058,0.504146456718445,0.525813698768616,0.300649523735046,0.01711430773139,0.034118544310331,0.035678084939718,0.011502704583109,0.011855694465339,0.06781392544508,64,3
1465,0,64,126,0,102,180,2051,46814000,524288,19988,13754,6,19,22.2990602278084,114.178723438083,6.97791291773319,-2.20000004768372,-4.99122790760618,-6.57865814983178,0.147079013768176,-0.732768117165267,0.270635215130401,230.366330932696,0.534566402435303,0.552113771438599,0.305377244949341,0.017923841252923,0.035858877003193,0.037390481680632,0.011767204850912,0.012134037911892,0.068026162683964,64,4
1465,0,64,126,0,95,180,2051,46815000,0,19988,13754,6,19,22.299016022483,114.178659326936,7.06350830290467,-2.20000004768372,-4.88270424135049,-6.51821963966566,0.077133311488651,0.791476035226686,0.269095838991518,230.370439634222,0.567230641841888,0.580473840236664,0.31052377820015,0.018758142367005,0.037618644535542,0.039086516946554,0.011994889006019,0.012363494373858,0.068207509815693,64,5
1465,0,64,126,0,95,180,2051,46816000,0,19988,13754,6,19,22.298965849096,114.178601912573,7.16975355800241,-2.20000004768372,-4.93346836804851,-6.27966398402487,0.145250991646744,1.0138794200593,0.326751637216399,229.281303119375,0.550030112266541,0.535193920135498,0.315903633832932,0.017504358664155,0.032686520367861,0.035064928233624,0.010756368748844,0.011585650034249,0.067937031388283,64,6
1465,0,64,126,0,95,180,2051,46817000,0,19988,13754,3,54,22.2989171681299,114.178546699342,7.26862007565796,-2.20000004768372,-4.80631340046686,-5.82730891336801,0.181882573664658,-0.069804449684511,0.678181769241268,227.823788879591,0.523248791694641,0.519730687141418,0.321678340435028,0.01653272844851,0.02975420281291,0.031574077904224,0.010220295749605,0.01082082092762,0.067801013588905,450,0
1465,0,64,126,0,95,180,2051,46818000,0,19988,13754,3,54,22.298869268676,114.178493876258,7.41007573530078,-2.20000004768372,-4.69807690496263,-5.51548441672671,0.152416785223975,0.626481478023828,0.530624052024244,227.456192630777,0.504655122756958,0.487135171890259,0.327783942222595,0.015714345499873,0.025361746549606,0.028520764783025,0.009531446732581,0.010357102379203,0.067779161036015,450,0
1465,0,64,126,0,95,180,2051,46819000,0,19988,13754,3,54,22.2988239448861,114.1784407482,7.52666328568012,-2.20000004768372,-4.73332685055799,-5.31980081897151,0.128868373976796,0.718327325870358,-0.064087876546197,227.208676076133,0.500237822532654,0.486883759498596,0.334307014942169,0.015675181522966,0.024123044684529,0.027558889240027,0.009518713690341,0.010147941298783,0.067895494401455,450,0
1465,0,64,126,0,95,180,2051,46820000,0,19988,13754,3,54,22.2987813200871,114.178389225972,7.64143486041576,-2.20000004768372,-4.56980918729469,-5.24017924951419,0.148292356168615,0.642211365914538,0.404550960319185,226.825193915884,0.509822070598602,0.493161737918854,0.341474086046219,0.016046589240432,0.023698195815086,0.028013944625855,0.009746634401381,0.01033647544682,0.068045660853386,450,0
1465,0,64,126,0,99,180,2051,46821000,0,19988,13754,3,54,22.2987401816574,114.178340292978,7.75899301934987,-2.20000004768372,-4.46016271811929,-4.94185226011543,0.162839644265171,-0.017751524750476,0.106556033025981,226.219540884823,0.514341533184052,0.499234318733215,0.349095433950424,0.01644004881382,0.022604366764426,0.028445310890675,0.009686410427094,0.010267698206008,0.068200081586838,450,0
1465,0,64,126,0,97,180,2051,46822000,0,19988,13754,3,54,22.2986988722757,114.178292793536,7.85484278574586,-2.20000004768372,-4.53265089978388,-4.87834915350021,0.107871663357026,0.529243657664175,0.122133884338832,225.797765142535,0.514385998249054,0.498809158802033,0.357165306806564,0.016721695661545,0.020751757547259,0.028467208147049,0.009525836445391,0.010153288953006,0.068328991532326,450,0
1465,0,64,126,0,97,180,2051,46823000,0,19988,13754,3,54,22.2986577623593,114.178244244095,7.96983567625284,-2.20000004768372,-4.65416052033967,-5.07169122324912,0.116540559002364,0.003917477300558,0.201404656836338,226.311977683513,0.518676698207855,0.507800221443176,0.365727663040161,0.017149729654193,0.019890926778317,0.029080590233207,0.009808609262109,0.010293647646904,0.06848955899477,450,0
1465,0,64,126,0,103,180,2051,46824000,0,19988,13754,3,54,22.2986148656779,114.178193886992,8.11158194486052,-2.20000004768372,-4.87139592695226,-5.276502218654,0.133973036917942,-0.339153696352116,-0.037168187543748,225.73346376846,0.533427476882935,0.517673850059509,0.374775528907776,0.017737017944455,0.020096231251955,0.030148027464748,0.010099969804287,0.010564252734184,0.068629302084446,450,0
1465,0,64,126,0,108,180,2051,46825000,0,19988,13754,3,54,22.2985697811554,114.17814272976,8.22289176192135,-2.20000004768372,-5.07726270702967,-5.24500365115715,0.111701249975316,-0.541621312708683,0.275509592467299,224.620881825433,0.54883748292923,0.530388176441193,0.38439530134201,0.018325753509998,0.02034511230886,0.031289450824261,0.010248675011098,0.010712790302932,0.068783901631832,450,0
1465,0,64,126,0,113,180,2051,46826000,0,19988,13754,3,54,22.2985233540055,114.178092218105,8.33188871946186,-2.20000004768372,-5.35456476942528,-5.18467897779743,0.139528324595246,-0.683664321133261,0.338885163925348,222.706826268239,0.566228568553925,0.543921053409576,0.394578516483307,0.018943658098579,0.020669549703598,0.032544746994972,0.01045086234808,0.01089886110276,0.068939529359341,450,0
1465,0,64,126,0,98,170,2051,46827000,0,19988,13754,3,54,22.298473996122,114.178043457872,8.45241281762719,-2.20000004768372,-5.71222335216803,-5.10993179466377,0.126615326867797,-1.27139467928788,0.386938196123777,220.494983691158,0.585992157459259,0.56019389629364,0.405331879854202,0.019579436630011,0.021606028079987,0.033848721534014,0.010607676580548,0.011031254194677,0.069072090089321,450,0
1465,0,64,126,0,98,170,2051,46828000,0,19988,13754,3,53,22.2984209896122,114.177992279636,8.58813749160618,-2.20000004768372,-5.80925630593504,-5.26331794192149,0.183106090427446,-1.08511127906221,0.539310868818451,220.447680094863,0.607132911682129,0.575602352619171,0.41654497385025,0.020141931250692,0.022611083462834,0.035099048167467,0.010796057991684,0.011220852844417,0.069225043058395,450,0
1465,0,64,126,0,107,180,2051,46829000,0,19988,13754,3,53,22.2983696534363,114.177940791112,8.67161197029054,-2.20000004768372,-5.64756811155171,-5.57286165265461,0.056467581780348,-0.132014487356576,-0.162194524583945,222.434258510096,0.628327906131744,0.592502951622009,0.428392142057419,0.020810209214687,0.023279590532184,0.03643711283803,0.01083682756871,0.011295386590064,0.069389723241329,450,0
1465,0,64,126,0,101,180,2051,46830000,0,19988,13754,3,54,22.2983188794875,114.177885528734,8.74251414928585,-2.20000004768372,-5.3539644442557,-5.74056281275519,0.06511384531581,-0.910718330823994,-0.58155431896414,224.558578632493,0.643773794174194,0.596425235271454,0.440463244915008,0.021083168685436,0.023152973502874,0.0368019528687,0.010690957307816,0.011319243349135,0.069574877619743,450,0
1465,0,64,126,0,101,180,2051,46831000,0,19988,13754,3,54,22.2982714312597,114.177831369693,8.83147576078773,-2.20000004768372,-5.11428208543304,-5.61321172938878,0.151612335937077,-1.33668974304537,0.309911351346069,225.876253181057,0.660906434059143,0.600024461746216,0.453265905380249,0.021461419761181,0.022888438776136,0.037346914410591,0.010477715171874,0.011342407204211,0.069754876196385,450,0
1465,0,64,126,0,102,180,2051,46832000,0,19988,13754,3,54,22.2982263693509,114.177778143252,8.97221125103533,-2.20000004768372,-4.85595104456778,-5.41254047780901,0.147844071977908,-1.20388837889546,0.305273329268652,226.436910823107,0.672320544719696,0.595627367496491,0.466526925563812,0.021590542048216,0.021893134340644,0.037284672260285,0.010117505677044,0.011272876523435,0.069910019636154,450,0
1465,0,64,126,0,95,180,2051,46833000,0,19988,13754,3,54,22.2981834804666,114.177726709835,9.1031636307016,-2.20000004768372,-4.66231913501287,-5.11537182104038,0.175699528229716,-1.55920686848107,0.126916249206224,226.359314421922,0.690406978130341,0.6104696393013,0.480420678853989,0.022044012323022,0.022926704958081,0.038108386099339,0.010291083715856,0.011327488347888,0.070083029568195,450,0
1465,0,64,126,0,95,170,2051,46834000,524288,19988,13754,3,54,22.2981441651695,114.177679986155,9.23850315157324,-2.20000004768372,-4.17483286914385,-4.61539349623096,0.14301658893701,-1.67044099299806,0.192099273784888,226.553921796414,0.717904925346375,0.628434896469116,0.494979619979858,0.02276754938066,0.02413909509778,0.039628759026528,0.010517429560423,0.011546880938113,0.070258051156998,450,0
1465,0,64,126,0,113,180,2051,46835000,524288,19988,13754,6,19,22.2981091443001,114.177637810722,9.37244310323149,-2.20000004768372,-3.67969284248785,-4.10904917463572,0.144726135829413,-1.60364206704741,0.158846191993868,226.815176932282,0.746880412101746,0.647567212581635,0.510071456432343,0.023535259068012,0.02541315741837,0.041212100535631,0.010745717212558,0.011769218370319,0.07044293731451,64,1
1465,0,64,126,0,110,180,2051,46836000,0,19988,13754,6,19,22.2980764746755,114.17759811052,9.50608614552766,-2.20000004768372,-3.50371080073479,-3.97788344601162,0.122686170095834,-1.35116166158477,0.250145639646952,226.958405768382,0.777271270751953,0.667585968971252,0.525659084320068,0.024325652047992,0.026743154972792,0.042840473353863,0.010967615060508,0.011978480033577,0.070620328187943,64,2
1465,0,64,126,0,110,180,2051,46837000,0,19988,13754,3,54,22.2980436885125,114.177559221816,9.66025280207396,-2.20000004768372,-3.76383617311424,-4.18572387349468,0.133031884937056,-1.65562995993154,0.454010825210879,227.055268158706,0.806318640708923,0.676769554615021,0.541704118251801,0.024920275434852,0.027047971263528,0.043947175145149,0.010890691541135,0.012155400589109,0.07076895236969,450,0
1465,0,64,126,0,113,180,2051,46838000,0,19988,13754,3,54,22.2980086946283,114.177516882933,9.80653765797615,-2.20000004768372,-4.06421934810555,-4.47422445603987,0.244285428200648,-1.6033684794567,0.009664562560282,227.224938386849,0.839344024658203,0.695738554000855,0.558343470096588,0.025632258504629,0.028236448764801,0.045454431325197,0.011108805425465,0.012403157539666,0.07093521207571,450,0
1465,0,64,126,0,106,180,2051,46839000,0,19988,13754,3,54,22.2979716988641,114.177471563912,9.9557508667931,-2.20000004768372,-4.25261061501465,-4.83317037788436,0.146461703528854,-2.03028164261132,0.346494197257212,227.993806711904,0.872625052928925,0.711566030979157,0.575573205947876,0.026287464424968,0.029039481654763,0.046794291585684,0.011278338730335,0.012687818147242,0.071107432246208,450,0
1465,0,64,126,0,106,180,2051,46840000,0,19988,13754,3,54,22.2979335513662,114.177423056349,10.1405786722898,-2.20000004768372,-4.02087911207008,-5.37567022913528,0.163860248521152,-2.52891647410342,0.255534747042242,230.159049956518,0.903174698352814,0.721553802490234,0.593360185623169,0.026807952672243,0.029472429305315,0.047777522355318,0.011261046864092,0.012863758951426,0.071291722357273,450,0
1465,0,64,126,0,104,180,2051,46841000,0,19988,13754,3,54,22.2978967914438,114.177370349448,10.2839277852327,-2.20000004768372,-4.15449843508195,-5.49353210448976,0.135917489703361,-1.21607520929515,-0.161616492945673,231.843283980846,0.920488059520721,0.72271990776062,0.611686885356903,0.027009505778551,0.02965297922492,0.047588933259249,0.010945549234748,0.01267462503165,0.071487754583359,450,0
1465,0,64,126,0,103,170,2051,46842000,0,19988,13754,3,54,22.2978585844235,114.177317230963,10.3832989195362,-2.20000004768372,-4.38878339553778,-5.622023601315,0.059693929125759,-1.4123225764895,-0.281883609401278,230.751197565158,0.95869767665863,0.744274437427521,0.630701899528503,0.027774263173342,0.031014354899526,0.049153558909893,0.011146592907608,0.012874552048743,0.071644231677055,450,0
1465,0,64,126,0,103,180,2051,46843000,0,19988,13754,3,53,22.2978182192101,114.177262334015,10.5311812302098,-2.20000004768372,-4.57429498587978,-5.71969967262296,0.130423898140183,-1.08935031172594,-0.106518086530621,229.658315478496,0.985225856304169,0.768149197101593,0.650332927703857,0.028367780148983,0.031929574906826,0.050146099179983,0.011317211203277,0.012853398919106,0.071794025599957,450,0
1465,0,64,126,0,111,180,2051,46844000,0,19988,13754,3,53,22.2977762570838,114.177205183197,10.6506248442456,-2.20000004768372,-4.81883644670291,-5.81566420997785,0.110837697377422,-0.525671199453752,-0.022797035513517,229.278307514389,0.986189126968384,0.785955667495728,0.670538783073425,0.028421830385923,0.032789684832096,0.049383223056793,0.011455703526735,0.012572040781379,0.07194259762764,450,0
1465,0,64,126,0,108,180,2051,46845000,0,19988,13754,3,54,22.2977338515153,114.177149645757,10.7679667407647,-2.20000004768372,-4.90203613507561,-5.8022506973075,0.11368250766213,-0.81550868653235,-0.133138522835337,228.664594420769,0.988635003566742,0.785358548164368,0.689668238162994,0.028382491320372,0.031248291954398,0.048663560301066,0.011165757663548,0.012327119708061,0.072085991501808,450,0
1465,0,64,126,0,107,180,2051,46846000,0,19988,13754,3,54,22.2976900470536,114.17709564018,10.8377519110218,-2.20000004768372,-4.95389031160935,-5.5994071697574,0.055830367021866,-1.05481007388992,-0.365868835963012,227.516621226528,1.00151014328003,0.778006553649902,0.710415661334991,0.028358465060592,0.029969153925777,0.048342738300562,0.010834929533303,0.01227283384651,0.07222031801939,450,0
